{
  "metadata": {
    "source": "Database of British and Irish Hills v18.4",
    "license": "CC BY 4.0",
    "sourceUrl": "https://www.hill-bagging.co.uk/dobih",
    "downloadedFrom": "https://www.hill-bagging.co.uk/dobih-downloads/hillcsv.zip",
    "changes": "Trimmed to Corbetts and reformatted from DoBIH v18.4",
    "generatedAt": "2026-07-11",
    "count": 222
  },
  "peaks": [
    {
      "id": "dobih-416",
      "dobihId": 416,
      "name": "A' Chaoirnich [Maol Creag an Loch]",
      "list": ["corbetts"],
      "region": "Glen Tromie to Glen Tilt",
      "heightM": 875.7,
      "heightFt": 2873,
      "lat": 56.90042,
      "lon": -4.078194,
      "gridRef": "NN735807",
      "source": "Database of British and Irish Hills v18.4"
    },
    {
      "id": "dobih-1293",
      "dobihId": 1293,
      "name": "Ainshval",
      "list": ["corbetts"],
      "region": "Canna, Rhum and Eigg",
      "heightM": 781,
      "heightFt": 2562,
      "lat": 56.96563,
      "lon": -6.314678,
      "gridRef": "NM378943",
      "source": "Database of British and Irish Hills v18.4"
    },
    {
      "id": "dobih-855",
      "dobihId": 855,
      "name": "Am Bathach",
      "list": ["corbetts"],
      "region": "Loch Duich to Cannich",
      "heightM": 798.1,
      "heightFt": 2618,
      "lat": 57.179265,
      "lon": -5.189109,
      "gridRef": "NH073143",
      "source": "Database of British and Irish Hills v18.4"
    },
    {
      "id": "dobih-1587",
      "dobihId": 1587,
      "name": "An Cliseam [Clisham]",
      "list": ["corbetts"],
      "region": "Harris and Nearby Islands",
      "heightM": 800,
      "heightFt": 2625,
      "lat": 57.963896,
      "lon": -6.812779,
      "gridRef": "NB154073",
      "source": "Database of British and Irish Hills v18.4"
    },
    {
      "id": "dobih-400",
      "dobihId": 400,
      "name": "An Dun",
      "list": ["corbetts"],
      "region": "Loch Ericht to Glen Tromie & Glen Garry",
      "heightM": 827.4,
      "heightFt": 2715,
      "lat": 56.894797,
      "lon": -4.108635,
      "gridRef": "NN716801",
      "source": "Database of British and Irish Hills v18.4"
    },
    {
      "id": "dobih-988",
      "dobihId": 988,
      "name": "An Ruadh-Stac",
      "list": ["corbetts"],
      "region": "Applecross to Achnasheen",
      "heightM": 890.4,
      "heightFt": 2921,
      "lat": 57.475008,
      "lon": -5.468322,
      "gridRef": "NG921480",
      "source": "Database of British and Irish Hills v18.4"
    },
    {
      "id": "dobih-910",
      "dobihId": 910,
      "name": "An Sithean [An Sidhean]",
      "list": ["corbetts"],
      "region": "Kyle of Lochalsh to Garve",
      "heightM": 814,
      "heightFt": 2671,
      "lat": 57.46181,
      "lon": -5.050778,
      "gridRef": "NH171453",
      "source": "Database of British and Irish Hills v18.4"
    },
    {
      "id": "dobih-1336",
      "dobihId": 1336,
      "name": "An Stac",
      "list": ["corbetts"],
      "region": "Moidart and Ardnamurchan",
      "heightM": 814,
      "heightFt": 2671,
      "lat": 56.850976,
      "lon": -5.670119,
      "gridRef": "NM763792",
      "source": "Database of British and Irish Hills v18.4"
    },
    {
      "id": "dobih-940",
      "dobihId": 940,
      "name": "Aonach Buidhe",
      "list": ["corbetts"],
      "region": "Killilan to Inverness",
      "heightM": 899,
      "heightFt": 2949,
      "lat": 57.341171,
      "lon": -5.229293,
      "gridRef": "NH057324",
      "source": "Database of British and Irish Hills v18.4"
    },
    {
      "id": "dobih-875",
      "dobihId": 875,
      "name": "Aonach Shasuinn",
      "list": ["corbetts"],
      "region": "Glen Affric to Glen Moriston",
      "heightM": 888,
      "heightFt": 2913,
      "lat": 57.216401,
      "lon": -5.026754,
      "gridRef": "NH173180",
      "source": "Database of British and Irish Hills v18.4"
    },
    {
      "id": "dobih-1129",
      "dobihId": 1129,
      "name": "Arkle",
      "list": ["corbetts"],
      "region": "Durness to Loch Shin",
      "heightM": 787,
      "heightFt": 2582,
      "lat": 58.371062,
      "lon": -4.903644,
      "gridRef": "NC302461",
      "source": "Database of British and Irish Hills v18.4"
    },
    {
      "id": "dobih-1292",
      "dobihId": 1292,
      "name": "Askival",
      "list": ["corbetts"],
      "region": "Canna, Rhum and Eigg",
      "heightM": 812,
      "heightFt": 2664,
      "lat": 56.974433,
      "lon": -6.291504,
      "gridRef": "NM393952",
      "source": "Database of British and Irish Hills v18.4"
    },
    {
      "id": "dobih-4",
      "dobihId": 4,
      "name": "Auchnafree Hill",
      "list": ["corbetts"],
      "region": "Loch Tay to Perth",
      "heightM": 787.4,
      "heightFt": 2583,
      "lat": 56.454355,
      "lon": -3.934667,
      "gridRef": "NN808308",
      "source": "Database of British and Irish Hills v18.4"
    },
    {
      "id": "dobih-907",
      "dobihId": 907,
      "name": "Bac an Eich",
      "list": ["corbetts"],
      "region": "Kyle of Lochalsh to Garve",
      "heightM": 849,
      "heightFt": 2785,
      "lat": 57.495767,
      "lon": -4.968291,
      "gridRef": "NH222489",
      "source": "Database of British and Irish Hills v18.4"
    },
    {
      "id": "dobih-973",
      "dobihId": 973,
      "name": "Baosbheinn",
      "list": ["corbetts"],
      "region": "Loch Torridon to Loch Maree",
      "heightM": 875,
      "heightFt": 2871,
      "lat": 57.628255,
      "lon": -5.568634,
      "gridRef": "NG870654",
      "source": "Database of British and Irish Hills v18.4"
    },
    {
      "id": "dobih-905",
      "dobihId": 905,
      "name": "Beinn a' Bhathaich Ard [Beinn a' Bha' ach Ard]",
      "list": ["corbetts"],
      "region": "Kyle of Lochalsh to Garve",
      "heightM": 862,
      "heightFt": 2828,
      "lat": 57.451935,
      "lon": -4.733922,
      "gridRef": "NH360434",
      "source": "Database of British and Irish Hills v18.4"
    },
    {
      "id": "dobih-262",
      "dobihId": 262,
      "name": "Beinn a' Bhuiridh",
      "list": ["corbetts"],
      "region": "Glen Etive to Glen Lochy",
      "heightM": 898.4,
      "heightFt": 2948,
      "lat": 56.409087,
      "lon": -5.09026,
      "gridRef": "NN094283",
      "source": "Database of British and Irish Hills v18.4"
    },
    {
      "id": "dobih-1027",
      "dobihId": 1027,
      "name": "Beinn a' Chaisgein Mor",
      "list": ["corbetts"],
      "region": "Loch Maree to Loch Broom",
      "heightM": 856,
      "heightFt": 2808,
      "lat": 57.751165,
      "lon": -5.39209,
      "gridRef": "NG982785",
      "source": "Database of British and Irish Hills v18.4"
    },
    {
      "id": "dobih-170",
      "dobihId": 170,
      "name": "Beinn a' Chaisteil",
      "list": ["corbetts"],
      "region": "Glen Lyon to Glen Dochart & Loch Tay",
      "heightM": 886,
      "heightFt": 2907,
      "lat": 56.490614,
      "lon": -4.686104,
      "gridRef": "NN347364",
      "source": "Database of British and Irish Hills v18.4"
    },
    {
      "id": "dobih-1096",
      "dobihId": 1096,
      "name": "Beinn a' Chaisteil",
      "list": ["corbetts"],
      "region": "Loch Vaich to Moray Firth",
      "heightM": 787,
      "heightFt": 2582,
      "lat": 57.78092,
      "lon": -4.742993,
      "gridRef": "NH369801",
      "source": "Database of British and Irish Hills v18.4"
    },
    {
      "id": "dobih-1024",
      "dobihId": 1024,
      "name": "Beinn a' Chlaidheimh",
      "list": ["corbetts"],
      "region": "Loch Maree to Loch Broom",
      "heightM": 913.96,
      "heightFt": 2999,
      "lat": 57.745922,
      "lon": -5.259066,
      "gridRef": "NH061775",
      "source": "Database of British and Irish Hills v18.4"
    },
    {
      "id": "dobih-48",
      "dobihId": 48,
      "name": "Beinn a' Choin",
      "list": ["corbetts"],
      "region": "Loch Lomond to Strathyre",
      "heightM": 768.7,
      "heightFt": 2522,
      "lat": 56.281091,
      "lon": -4.659915,
      "gridRef": "NN354130",
      "source": "Database of British and Irish Hills v18.4"
    },
    {
      "id": "dobih-186",
      "dobihId": 186,
      "name": "Beinn a' Chrulaiste",
      "list": ["corbetts"],
      "region": "Loch Leven to Rannoch Station",
      "heightM": 857,
      "heightFt": 2812,
      "lat": 56.668905,
      "lon": -4.863529,
      "gridRef": "NN246566",
      "source": "Database of British and Irish Hills v18.4"
    },
    {
      "id": "dobih-395",
      "dobihId": 395,
      "name": "Beinn a' Chuallaich",
      "list": ["corbetts"],
      "region": "Loch Ericht to Glen Tromie & Glen Garry",
      "heightM": 892.2,
      "heightFt": 2927,
      "lat": 56.729015,
      "lon": -4.151523,
      "gridRef": "NN684617",
      "source": "Database of British and Irish Hills v18.4"
    },
    {
      "id": "dobih-1030",
      "dobihId": 1030,
      "name": "Beinn Airigh Charr",
      "list": ["corbetts"],
      "region": "Loch Maree to Loch Broom",
      "heightM": 791.7,
      "heightFt": 2597,
      "lat": 57.727566,
      "lon": -5.47761,
      "gridRef": "NG930761",
      "source": "Database of British and Irish Hills v18.4"
    },
    {
      "id": "dobih-747",
      "dobihId": 747,
      "name": "Beinn an Aodainn [Ben Aden]",
      "list": ["corbetts"],
      "region": "Knoydart to Glen Kingie",
      "heightM": 887,
      "heightFt": 2910,
      "lat": 57.030736,
      "lon": -5.463143,
      "gridRef": "NM899986",
      "source": "Database of British and Irish Hills v18.4"
    },
    {
      "id": "dobih-974",
      "dobihId": 974,
      "name": "Beinn an Eoin",
      "list": ["corbetts"],
      "region": "Loch Torridon to Loch Maree",
      "heightM": 855,
      "heightFt": 2805,
      "lat": 57.622829,
      "lon": -5.509791,
      "gridRef": "NG905646",
      "source": "Database of British and Irish Hills v18.4"
    },
    {
      "id": "dobih-1419",
      "dobihId": 1419,
      "name": "Beinn an Lochain",
      "list": ["corbetts"],
      "region": "Loch Fyne to Bute and the Firth of Clyde",
      "heightM": 901.7,
      "heightFt": 2958,
      "lat": 56.230094,
      "lon": -4.876228,
      "gridRef": "NN218078",
      "source": "Database of British and Irish Hills v18.4"
    },
    {
      "id": "dobih-1449",
      "dobihId": 1449,
      "name": "Beinn an Oir",
      "list": ["corbetts"],
      "region": "Jura, Scarba and Colonsay",
      "heightM": 785,
      "heightFt": 2575,
      "lat": 55.902396,
      "lon": -6.004137,
      "gridRef": "NR498749",
      "source": "Database of British and Irish Hills v18.4"
    },
    {
      "id": "dobih-783",
      "dobihId": 783,
      "name": "Beinn Bhan",
      "list": ["corbetts"],
      "region": "Mallaig to Fort William",
      "heightM": 795.9,
      "heightFt": 2611,
      "lat": 56.925252,
      "lon": -5.056859,
      "gridRef": "NN140857",
      "source": "Database of British and Irish Hills v18.4"
    },
    {
      "id": "dobih-987",
      "dobihId": 987,
      "name": "Beinn Bhan",
      "list": ["corbetts"],
      "region": "Applecross to Achnasheen",
      "heightM": 895.7,
      "heightFt": 2939,
      "lat": 57.442348,
      "lon": -5.661703,
      "gridRef": "NG803450",
      "source": "Database of British and Irish Hills v18.4"
    },
    {
      "id": "dobih-1422",
      "dobihId": 1422,
      "name": "Beinn Bheula",
      "list": ["corbetts"],
      "region": "Loch Fyne to Bute and the Firth of Clyde",
      "heightM": 779,
      "heightFt": 2556,
      "lat": 56.141833,
      "lon": -4.971465,
      "gridRef": "NS154983",
      "source": "Database of British and Irish Hills v18.4"
    },
    {
      "id": "dobih-414",
      "dobihId": 414,
      "name": "Beinn Bhreac",
      "list": ["corbetts"],
      "region": "Glen Tromie to Glen Tilt",
      "heightM": 912.44,
      "heightFt": 2994,
      "lat": 56.916127,
      "lon": -3.86034,
      "gridRef": "NN868820",
      "source": "Database of British and Irish Hills v18.4"
    },
    {
      "id": "dobih-266",
      "dobihId": 266,
      "name": "Beinn Bhreac-liath",
      "list": ["corbetts"],
      "region": "Glen Etive to Glen Lochy",
      "heightM": 802,
      "heightFt": 2631,
      "lat": 56.466716,
      "lon": -4.756524,
      "gridRef": "NN302339",
      "source": "Database of British and Irish Hills v18.4"
    },
    {
      "id": "dobih-749",
      "dobihId": 749,
      "name": "Beinn Bhuidhe",
      "list": ["corbetts"],
      "region": "Knoydart to Glen Kingie",
      "heightM": 855.4,
      "heightFt": 2806,
      "lat": 57.010102,
      "lon": -5.589145,
      "gridRef": "NM821967",
      "source": "Database of British and Irish Hills v18.4"
    },
    {
      "id": "dobih-173",
      "dobihId": 173,
      "name": "Beinn Chaorach",
      "list": ["corbetts"],
      "region": "Glen Lyon to Glen Dochart & Loch Tay",
      "heightM": 818,
      "heightFt": 2684,
      "lat": 56.458875,
      "lon": -4.664933,
      "gridRef": "NN358328",
      "source": "Database of British and Irish Hills v18.4"
    },
    {
      "id": "dobih-80",
      "dobihId": 80,
      "name": "Beinn Chuirn",
      "list": ["corbetts"],
      "region": "Inveraray to Crianlarich",
      "heightM": 880,
      "heightFt": 2887,
      "lat": 56.423887,
      "lon": -4.789867,
      "gridRef": "NN280292",
      "source": "Database of British and Irish Hills v18.4"
    },
    {
      "id": "dobih-986",
      "dobihId": 986,
      "name": "Beinn Damh",
      "list": ["corbetts"],
      "region": "Applecross to Achnasheen",
      "heightM": 902.4,
      "heightFt": 2961,
      "lat": 57.492828,
      "lon": -5.518164,
      "gridRef": "NG892501",
      "source": "Database of British and Irish Hills v18.4"
    },
    {
      "id": "dobih-134",
      "dobihId": 134,
      "name": "Beinn Dearg",
      "list": ["corbetts"],
      "region": "Loch Rannoch to Glen Lyon",
      "heightM": 830,
      "heightFt": 2723,
      "lat": 56.61893,
      "lon": -4.268971,
      "gridRef": "NN608497",
      "source": "Database of British and Irish Hills v18.4"
    },
    {
      "id": "dobih-970",
      "dobihId": 970,
      "name": "Beinn Dearg",
      "list": ["corbetts"],
      "region": "Loch Torridon to Loch Maree",
      "heightM": 913.7,
      "heightFt": 2998,
      "lat": 57.588186,
      "lon": -5.522872,
      "gridRef": "NG895608",
      "source": "Database of British and Irish Hills v18.4"
    },
    {
      "id": "dobih-1028",
      "dobihId": 1028,
      "name": "Beinn Dearg Bheag",
      "list": ["corbetts"],
      "region": "Loch Maree to Loch Broom",
      "heightM": 817.9,
      "heightFt": 2683,
      "lat": 57.775985,
      "lon": -5.331426,
      "gridRef": "NH019811",
      "source": "Database of British and Irish Hills v18.4"
    },
    {
      "id": "dobih-1025",
      "dobihId": 1025,
      "name": "Beinn Dearg Mor",
      "list": ["corbetts"],
      "region": "Loch Maree to Loch Broom",
      "heightM": 906.28,
      "heightFt": 2973,
      "lat": 57.765796,
      "lon": -5.309938,
      "gridRef": "NH032799",
      "source": "Database of British and Irish Hills v18.4"
    },
    {
      "id": "dobih-911",
      "dobihId": 911,
      "name": "Beinn Dronaig",
      "list": ["corbetts"],
      "region": "Kyle of Lochalsh to Garve",
      "heightM": 796.8,
      "heightFt": 2614,
      "lat": 57.391571,
      "lon": -5.267956,
      "gridRef": "NH037381",
      "source": "Database of British and Irish Hills v18.4"
    },
    {
      "id": "dobih-19",
      "dobihId": 19,
      "name": "Beinn Each",
      "list": ["corbetts"],
      "region": "Strathyre to Strathallan",
      "heightM": 811.2,
      "heightFt": 2661,
      "lat": 56.313957,
      "lon": -4.262183,
      "gridRef": "NN601158",
      "source": "Database of British and Irish Hills v18.4"
    },
    {
      "id": "dobih-1073",
      "dobihId": 1073,
      "name": "Beinn Enaiglair",
      "list": ["corbetts"],
      "region": "Loch Broom to Strath Oykel",
      "heightM": 890,
      "heightFt": 2920,
      "lat": 57.779101,
      "lon": -4.986727,
      "gridRef": "NH225805",
      "source": "Database of British and Irish Hills v18.4"
    },
    {
      "id": "dobih-677",
      "dobihId": 677,
      "name": "Beinn Iaruinn",
      "list": ["corbetts"],
      "region": "Loch Lochy to Loch Laggan",
      "heightM": 804.3,
      "heightFt": 2639,
      "lat": 56.970137,
      "lon": -4.803168,
      "gridRef": "NN296900",
      "source": "Database of British and Irish Hills v18.4"
    },
    {
      "id": "dobih-1026",
      "dobihId": 1026,
      "name": "Beinn Lair",
      "list": ["corbetts"],
      "region": "Loch Maree to Loch Broom",
      "heightM": 859,
      "heightFt": 2818,
      "lat": 57.703833,
      "lon": -5.389221,
      "gridRef": "NG981732",
      "source": "Database of British and Irish Hills v18.4"
    },
    {
      "id": "dobih-1189",
      "dobihId": 1189,
      "name": "Beinn Leoid",
      "list": ["corbetts"],
      "region": "Scourie to Lairg",
      "heightM": 792,
      "heightFt": 2598,
      "lat": 58.222005,
      "lon": -4.861628,
      "gridRef": "NC320294",
      "source": "Database of British and Irish Hills v18.4"
    },
    {
      "id": "dobih-1054",
      "dobihId": 1054,
      "name": "Beinn Liath Mhor a' Ghiubhais Li [Beinn Liath Mhor a' Ghiuthais]",
      "list": ["corbetts"],
      "region": "The Fannaichs",
      "heightM": 766,
      "heightFt": 2513,
      "lat": 57.698655,
      "lon": -4.886379,
      "gridRef": "NH280713",
      "source": "Database of British and Irish Hills v18.4"
    },
    {
      "id": "dobih-81",
      "dobihId": 81,
      "name": "Beinn Luibhean",
      "list": ["corbetts"],
      "region": "Inveraray to Crianlarich",
      "heightM": 859.7,
      "heightFt": 2821,
      "lat": 56.23124,
      "lon": -4.83634,
      "gridRef": "NN242079",
      "source": "Database of British and Irish Hills v18.4"
    },
    {
      "id": "dobih-211",
      "dobihId": 211,
      "name": "Beinn Maol Chaluim",
      "list": ["corbetts"],
      "region": "Loch Linnhe to Loch Etive",
      "heightM": 906.3,
      "heightFt": 2973,
      "lat": 56.627853,
      "lon": -5.041952,
      "gridRef": "NN134525",
      "source": "Database of British and Irish Hills v18.4"
    },
    {
      "id": "dobih-415",
      "dobihId": 415,
      "name": "Beinn Mheadhonach",
      "list": ["corbetts"],
      "region": "Glen Tromie to Glen Tilt",
      "heightM": 900.9,
      "heightFt": 2956,
      "lat": 56.86094,
      "lon": -3.83844,
      "gridRef": "NN880758",
      "source": "Database of British and Irish Hills v18.4"
    },
    {
      "id": "dobih-1337",
      "dobihId": 1337,
      "name": "Beinn Mhic Cedidh",
      "list": ["corbetts"],
      "region": "Moidart and Ardnamurchan",
      "heightM": 783,
      "heightFt": 2569,
      "lat": 56.849855,
      "lon": -5.563042,
      "gridRef": "NM828788",
      "source": "Database of British and Irish Hills v18.4"
    },
    {
      "id": "dobih-264",
      "dobihId": 264,
      "name": "Beinn Mhic Chasgaig",
      "list": ["corbetts"],
      "region": "Glen Etive to Glen Lochy",
      "heightM": 864,
      "heightFt": 2835,
      "lat": 56.610061,
      "lon": -4.899477,
      "gridRef": "NN221502",
      "source": "Database of British and Irish Hills v18.4"
    },
    {
      "id": "dobih-267",
      "dobihId": 267,
      "name": "Beinn Mhic Mhonaidh",
      "list": ["corbetts"],
      "region": "Glen Etive to Glen Lochy",
      "heightM": 794.8,
      "heightFt": 2608,
      "lat": 56.473069,
      "lon": -4.909725,
      "gridRef": "NN208350",
      "source": "Database of British and Irish Hills v18.4"
    },
    {
      "id": "dobih-397",
      "dobihId": 397,
      "name": "Beinn Mholach",
      "list": ["corbetts"],
      "region": "Loch Ericht to Glen Tromie & Glen Garry",
      "heightM": 841.8,
      "heightFt": 2762,
      "lat": 56.759525,
      "lon": -4.3121,
      "gridRef": "NN587654",
      "source": "Database of British and Irish Hills v18.4"
    },
    {
      "id": "dobih-753",
      "dobihId": 753,
      "name": "Beinn na Caillich",
      "list": ["corbetts"],
      "region": "Knoydart to Glen Kingie",
      "heightM": 785,
      "heightFt": 2575,
      "lat": 57.098269,
      "lon": -5.640323,
      "gridRef": "NG795066",
      "source": "Database of British and Irish Hills v18.4"
    },
    {
      "id": "dobih-718",
      "dobihId": 718,
      "name": "Beinn na h-Eaglaise",
      "list": ["corbetts"],
      "region": "Glen Shiel to Loch Hourn and Loch Quoich",
      "heightM": 805,
      "heightFt": 2641,
      "lat": 57.14862,
      "lon": -5.548691,
      "gridRef": "NG854120",
      "source": "Database of British and Irish Hills v18.4"
    },
    {
      "id": "dobih-1358",
      "dobihId": 1358,
      "name": "Beinn na h-Uamha",
      "list": ["corbetts"],
      "region": "Sunart and Ardgour",
      "heightM": 762.4,
      "heightFt": 2501,
      "lat": 56.742777,
      "lon": -5.407524,
      "gridRef": "NM917664",
      "source": "Database of British and Irish Hills v18.4"
    },
    {
      "id": "dobih-174",
      "dobihId": 174,
      "name": "Beinn nam Fuaran",
      "list": ["corbetts"],
      "region": "Glen Lyon to Glen Dochart & Loch Tay",
      "heightM": 806,
      "heightFt": 2644,
      "lat": 56.507155,
      "lon": -4.664664,
      "gridRef": "NN361381",
      "source": "Database of British and Irish Hills v18.4"
    },
    {
      "id": "dobih-721",
      "dobihId": 721,
      "name": "Beinn nan Caorach",
      "list": ["corbetts"],
      "region": "Glen Shiel to Loch Hourn and Loch Quoich",
      "heightM": 774,
      "heightFt": 2539,
      "lat": 57.15046,
      "lon": -5.520433,
      "gridRef": "NG871121",
      "source": "Database of British and Irish Hills v18.4"
    },
    {
      "id": "dobih-172",
      "dobihId": 172,
      "name": "Beinn nan Imirean",
      "list": ["corbetts"],
      "region": "Glen Lyon to Glen Dochart & Loch Tay",
      "heightM": 848.3,
      "heightFt": 2783,
      "lat": 56.444139,
      "lon": -4.565859,
      "gridRef": "NN419309",
      "source": "Database of British and Irish Hills v18.4"
    },
    {
      "id": "dobih-168",
      "dobihId": 168,
      "name": "Beinn nan Oighreag",
      "list": ["corbetts"],
      "region": "Glen Lyon to Glen Dochart & Loch Tay",
      "heightM": 909.6,
      "heightFt": 2984,
      "lat": 56.540092,
      "lon": -4.373221,
      "gridRef": "NN541412",
      "source": "Database of British and Irish Hills v18.4"
    },
    {
      "id": "dobih-169",
      "dobihId": 169,
      "name": "Beinn Odhar",
      "list": ["corbetts"],
      "region": "Glen Lyon to Glen Dochart & Loch Tay",
      "heightM": 900.8,
      "heightFt": 2955,
      "lat": 56.467652,
      "lon": -4.700459,
      "gridRef": "NN337338",
      "source": "Database of British and Irish Hills v18.4"
    },
    {
      "id": "dobih-1333",
      "dobihId": 1333,
      "name": "Beinn Odhar Bheag",
      "list": ["corbetts"],
      "region": "Moidart and Ardnamurchan",
      "heightM": 883.3,
      "heightFt": 2898,
      "lat": 56.842204,
      "lon": -5.532392,
      "gridRef": "NM846778",
      "source": "Database of British and Irish Hills v18.4"
    },
    {
      "id": "dobih-374",
      "dobihId": 374,
      "name": "Beinn Pharlagain - Meall na Meoig [Meall na Meoig]",
      "list": ["corbetts"],
      "region": "Loch Treig to Loch Ericht",
      "heightM": 867.3,
      "heightFt": 2845,
      "lat": 56.743624,
      "lon": -4.538996,
      "gridRef": "NN448642",
      "source": "Database of British and Irish Hills v18.4"
    },
    {
      "id": "dobih-1352",
      "dobihId": 1352,
      "name": "Beinn Resipol",
      "list": ["corbetts"],
      "region": "Sunart and Ardgour",
      "heightM": 845,
      "heightFt": 2772,
      "lat": 56.727189,
      "lon": -5.652605,
      "gridRef": "NM766654",
      "source": "Database of British and Irish Hills v18.4"
    },
    {
      "id": "dobih-1131",
      "dobihId": 1131,
      "name": "Beinn Spionnaidh",
      "list": ["corbetts"],
      "region": "Durness to Loch Shin",
      "heightM": 773,
      "heightFt": 2536,
      "lat": 58.473042,
      "lon": -4.810504,
      "gridRef": "NC361572",
      "source": "Database of British and Irish Hills v18.4"
    },
    {
      "id": "dobih-47",
      "dobihId": 47,
      "name": "Beinn Stacach [Ceann na Baintighearna] [Stob Fear-tomhais] [Beinn Stacath]",
      "list": ["corbetts"],
      "region": "Loch Lomond to Strathyre",
      "heightM": 771.8,
      "heightFt": 2532,
      "lat": 56.314679,
      "lon": -4.468127,
      "gridRef": "NN474163",
      "source": "Database of British and Irish Hills v18.4"
    },
    {
      "id": "dobih-1474",
      "dobihId": 1474,
      "name": "Beinn Tarsuinn",
      "list": ["corbetts"],
      "region": "Arran and Holy Island",
      "heightM": 826,
      "heightFt": 2710,
      "lat": 55.621483,
      "lon": -5.242083,
      "gridRef": "NR959412",
      "source": "Database of British and Irish Hills v18.4"
    },
    {
      "id": "dobih-904",
      "dobihId": 904,
      "name": "Beinn Tharsuinn",
      "list": ["corbetts"],
      "region": "Kyle of Lochalsh to Garve",
      "heightM": 861.2,
      "heightFt": 2825,
      "lat": 57.438671,
      "lon": -5.241954,
      "gridRef": "NH055433",
      "source": "Database of British and Irish Hills v18.4"
    },
    {
      "id": "dobih-213",
      "dobihId": 213,
      "name": "Beinn Trilleachan",
      "list": ["corbetts"],
      "region": "Loch Linnhe to Loch Etive",
      "heightM": 840,
      "heightFt": 2756,
      "lat": 56.547978,
      "lon": -5.114433,
      "gridRef": "NN086439",
      "source": "Database of British and Irish Hills v18.4"
    },
    {
      "id": "dobih-265",
      "dobihId": 265,
      "name": "Beinn Udlaidh",
      "list": ["corbetts"],
      "region": "Glen Etive to Glen Lochy",
      "heightM": 840.4,
      "heightFt": 2757,
      "lat": 56.460077,
      "lon": -4.792538,
      "gridRef": "NN280332",
      "source": "Database of British and Irish Hills v18.4"
    },
    {
      "id": "dobih-1420",
      "dobihId": 1420,
      "name": "Ben Donich",
      "list": ["corbetts"],
      "region": "Loch Fyne to Bute and the Firth of Clyde",
      "heightM": 846.5,
      "heightFt": 2777,
      "lat": 56.197929,
      "lon": -4.87327,
      "gridRef": "NN218043",
      "source": "Database of British and Irish Hills v18.4"
    },
    {
      "id": "dobih-446",
      "dobihId": 446,
      "name": "Ben Gulabin",
      "list": ["corbetts"],
      "region": "Pitlochry to Braemar & Blairgowrie",
      "heightM": 806,
      "heightFt": 2644,
      "lat": 56.83265,
      "lon": -3.475902,
      "gridRef": "NO100722",
      "source": "Database of British and Irish Hills v18.4"
    },
    {
      "id": "dobih-1126",
      "dobihId": 1126,
      "name": "Ben Hee",
      "list": ["corbetts"],
      "region": "Durness to Loch Shin",
      "heightM": 873,
      "heightFt": 2864,
      "lat": 58.265889,
      "lon": -4.68391,
      "gridRef": "NC426339",
      "source": "Database of British and Irish Hills v18.4"
    },
    {
      "id": "dobih-42",
      "dobihId": 42,
      "name": "Ben Ledi",
      "list": ["corbetts"],
      "region": "Loch Lomond to Strathyre",
      "heightM": 878.6,
      "heightFt": 2883,
      "lat": 56.258659,
      "lon": -4.322375,
      "gridRef": "NN562097",
      "source": "Database of British and Irish Hills v18.4"
    },
    {
      "id": "dobih-1132",
      "dobihId": 1132,
      "name": "Ben Loyal - An Caisteal",
      "list": ["corbetts"],
      "region": "Durness to Loch Shin",
      "heightM": 764.2,
      "heightFt": 2507,
      "lat": 58.404926,
      "lon": -4.435027,
      "gridRef": "NC578488",
      "source": "Database of British and Irish Hills v18.4"
    },
    {
      "id": "dobih-1489",
      "dobihId": 1489,
      "name": "Ben Rinnes",
      "list": ["corbetts"],
      "region": "Tomintoul to Banff",
      "heightM": 840.9,
      "heightFt": 2759,
      "lat": 57.403284,
      "lon": -3.241513,
      "gridRef": "NJ254354",
      "source": "Database of British and Irish Hills v18.4"
    },
    {
      "id": "dobih-761",
      "dobihId": 761,
      "name": "Ben Tee",
      "list": ["corbetts"],
      "region": "Loch Arkaig to Glen Moriston",
      "heightM": 901.6,
      "heightFt": 2958,
      "lat": 57.032222,
      "lon": -4.900697,
      "gridRef": "NN240971",
      "source": "Database of British and Irish Hills v18.4"
    },
    {
      "id": "dobih-491",
      "dobihId": 491,
      "name": "Ben Tirran [The Goet]",
      "list": ["corbetts"],
      "region": "Braemar to Montrose",
      "heightM": 897,
      "heightFt": 2943,
      "lat": 56.858703,
      "lon": -3.029169,
      "gridRef": "NO373746",
      "source": "Database of British and Irish Hills v18.4"
    },
    {
      "id": "dobih-445",
      "dobihId": 445,
      "name": "Ben Vrackie",
      "list": ["corbetts"],
      "region": "Pitlochry to Braemar & Blairgowrie",
      "heightM": 842.2,
      "heightFt": 2763,
      "lat": 56.748956,
      "lon": -3.717273,
      "gridRef": "NN950632",
      "source": "Database of British and Irish Hills v18.4"
    },
    {
      "id": "dobih-441",
      "dobihId": 441,
      "name": "Ben Vuirich",
      "list": ["corbetts"],
      "region": "Pitlochry to Braemar & Blairgowrie",
      "heightM": 903.1,
      "heightFt": 2963,
      "lat": 56.810746,
      "lon": -3.644008,
      "gridRef": "NN997700",
      "source": "Database of British and Irish Hills v18.4"
    },
    {
      "id": "dobih-45",
      "dobihId": 45,
      "name": "Benvane",
      "list": ["corbetts"],
      "region": "Loch Lomond to Strathyre",
      "heightM": 821,
      "heightFt": 2694,
      "lat": 56.293295,
      "lon": -4.368435,
      "gridRef": "NN535137",
      "source": "Database of British and Irish Hills v18.4"
    },
    {
      "id": "dobih-779",
      "dobihId": 779,
      "name": "Bidein a' Chabair",
      "list": ["corbetts"],
      "region": "Mallaig to Fort William",
      "heightM": 867.5,
      "heightFt": 2846,
      "lat": 56.980354,
      "lon": -5.475517,
      "gridRef": "NM889930",
      "source": "Database of British and Irish Hills v18.4"
    },
    {
      "id": "dobih-785",
      "dobihId": 785,
      "name": "Braigh nan Uamhachan",
      "list": ["corbetts"],
      "region": "Mallaig to Fort William",
      "heightM": 765,
      "heightFt": 2510,
      "lat": 56.927386,
      "lon": -5.328568,
      "gridRef": "NM975867",
      "source": "Database of British and Irish Hills v18.4"
    },
    {
      "id": "dobih-1187",
      "dobihId": 1187,
      "name": "Breabag",
      "list": ["corbetts"],
      "region": "Scourie to Lairg",
      "heightM": 815,
      "heightFt": 2674,
      "lat": 58.097375,
      "lon": -4.908544,
      "gridRef": "NC286157",
      "source": "Database of British and Irish Hills v18.4"
    },
    {
      "id": "dobih-1830",
      "dobihId": 1830,
      "name": "Broad Law",
      "list": ["corbetts", "donalds"],
      "region": "Manor Hills",
      "heightM": 840.1,
      "heightFt": 2756,
      "lat": 55.498134,
      "lon": -3.352731,
      "gridRef": "NT146235",
      "source": "Database of British and Irish Hills v18.4"
    },
    {
      "id": "dobih-597",
      "dobihId": 597,
      "name": "Brown Cow Hill",
      "list": ["corbetts"],
      "region": "Cairngorms",
      "heightM": 829,
      "heightFt": 2720,
      "lat": 57.124393,
      "lon": -3.288228,
      "gridRef": "NJ221044",
      "source": "Database of British and Irish Hills v18.4"
    },
    {
      "id": "dobih-713",
      "dobihId": 713,
      "name": "Buidhe Bheinn",
      "list": ["corbetts"],
      "region": "Glen Shiel to Loch Hourn and Loch Quoich",
      "heightM": 885.5,
      "heightFt": 2905,
      "lat": 57.127133,
      "lon": -5.366446,
      "gridRef": "NG963090",
      "source": "Database of British and Irish Hills v18.4"
    },
    {
      "id": "dobih-1739",
      "dobihId": 1739,
      "name": "Cairnsmore of Carsphairn",
      "list": ["corbetts", "donalds"],
      "region": "Carsphairn Hills",
      "heightM": 797,
      "heightFt": 2615,
      "lat": 55.256099,
      "lon": -4.213134,
      "gridRef": "NX594980",
      "source": "Database of British and Irish Hills v18.4"
    },
    {
      "id": "dobih-1473",
      "dobihId": 1473,
      "name": "Caisteal Abhail",
      "list": ["corbetts"],
      "region": "Arran and Holy Island",
      "heightM": 859,
      "heightFt": 2818,
      "lat": 55.649863,
      "lon": -5.229293,
      "gridRef": "NR969443",
      "source": "Database of British and Irish Hills v18.4"
    },
    {
      "id": "dobih-132",
      "dobihId": 132,
      "name": "Cam Chreag",
      "list": ["corbetts"],
      "region": "Loch Rannoch to Glen Lyon",
      "heightM": 861.7,
      "heightFt": 2827,
      "lat": 56.611077,
      "lon": -4.385627,
      "gridRef": "NN536491",
      "source": "Database of British and Irish Hills v18.4"
    },
    {
      "id": "dobih-171",
      "dobihId": 171,
      "name": "Cam Chreag",
      "list": ["corbetts"],
      "region": "Glen Lyon to Glen Dochart & Loch Tay",
      "heightM": 883.6,
      "heightFt": 2899,
      "lat": 56.476054,
      "lon": -4.639162,
      "gridRef": "NN375346",
      "source": "Database of British and Irish Hills v18.4"
    },
    {
      "id": "dobih-1206",
      "dobihId": 1206,
      "name": "Canisp",
      "list": ["corbetts"],
      "region": "Lochinver to Ullapool",
      "heightM": 847,
      "heightFt": 2779,
      "lat": 58.120914,
      "lon": -5.052849,
      "gridRef": "NC202187",
      "source": "Database of British and Irish Hills v18.4"
    },
    {
      "id": "dobih-876",
      "dobihId": 876,
      "name": "Carn a' Choire Ghairbh",
      "list": ["corbetts"],
      "region": "Glen Affric to Glen Moriston",
      "heightM": 862.5,
      "heightFt": 2830,
      "lat": 57.222594,
      "lon": -5.087627,
      "gridRef": "NH136188",
      "source": "Database of British and Irish Hills v18.4"
    },
    {
      "id": "dobih-638",
      "dobihId": 638,
      "name": "Carn a' Chuilinn",
      "list": ["corbetts"],
      "region": "Glen Albyn and the Monadh Liath",
      "heightM": 817,
      "heightFt": 2680,
      "lat": 57.094258,
      "lon": -4.614852,
      "gridRef": "NH416033",
      "source": "Database of British and Irish Hills v18.4"
    },
    {
      "id": "dobih-633",
      "dobihId": 633,
      "name": "Carn an Fhreiceadain",
      "list": ["corbetts"],
      "region": "Glen Albyn and the Monadh Liath",
      "heightM": 877.7,
      "heightFt": 2880,
      "lat": 57.137355,
      "lon": -4.107357,
      "gridRef": "NH725071",
      "source": "Database of British and Irish Hills v18.4"
    },
    {
      "id": "dobih-1074",
      "dobihId": 1074,
      "name": "Carn Ban",
      "list": ["corbetts"],
      "region": "Loch Broom to Strath Oykel",
      "heightM": 843.3,
      "heightFt": 2767,
      "lat": 57.846772,
      "lon": -4.801042,
      "gridRef": "NH338875",
      "source": "Database of British and Irish Hills v18.4"
    },
    {
      "id": "dobih-1095",
      "dobihId": 1095,
      "name": "Carn Chuinneag",
      "list": ["corbetts"],
      "region": "Loch Vaich to Moray Firth",
      "heightM": 839,
      "heightFt": 2753,
      "lat": 57.813803,
      "lon": -4.554142,
      "gridRef": "NH483833",
      "source": "Database of British and Irish Hills v18.4"
    },
    {
      "id": "dobih-637",
      "dobihId": 637,
      "name": "Carn Dearg",
      "list": ["corbetts"],
      "region": "Glen Albyn and the Monadh Liath",
      "heightM": 816.5,
      "heightFt": 2679,
      "lat": 57.03112,
      "lon": -4.720417,
      "gridRef": "NN349966",
      "source": "Database of British and Irish Hills v18.4"
    },
    {
      "id": "dobih-642",
      "dobihId": 642,
      "name": "Carn Dearg",
      "list": ["corbetts"],
      "region": "Glen Albyn and the Monadh Liath",
      "heightM": 768,
      "heightFt": 2520,
      "lat": 57.015739,
      "lon": -4.707348,
      "gridRef": "NN357948",
      "source": "Database of British and Irish Hills v18.4"
    },
    {
      "id": "dobih-676",
      "dobihId": 676,
      "name": "Carn Dearg",
      "list": ["corbetts"],
      "region": "Loch Lochy to Loch Laggan",
      "heightM": 834.4,
      "heightFt": 2738,
      "lat": 56.959813,
      "lon": -4.723327,
      "gridRef": "NN345887",
      "source": "Database of British and Irish Hills v18.4"
    },
    {
      "id": "dobih-417",
      "dobihId": 417,
      "name": "Carn Dearg Mor",
      "list": ["corbetts"],
      "region": "Glen Tromie to Glen Tilt",
      "heightM": 857.4,
      "heightFt": 2813,
      "lat": 56.996795,
      "lon": -3.938665,
      "gridRef": "NN823911",
      "source": "Database of British and Irish Hills v18.4"
    },
    {
      "id": "dobih-602",
      "dobihId": 602,
      "name": "Carn Ealasaid",
      "list": ["corbetts"],
      "region": "Cairngorms",
      "heightM": 792.7,
      "heightFt": 2601,
      "lat": 57.190255,
      "lon": -3.279499,
      "gridRef": "NJ227117",
      "source": "Database of British and Irish Hills v18.4"
    },
    {
      "id": "dobih-780",
      "dobihId": 780,
      "name": "Carn Mor",
      "list": ["corbetts"],
      "region": "Mallaig to Fort William",
      "heightM": 830,
      "heightFt": 2723,
      "lat": 56.962009,
      "lon": -5.450735,
      "gridRef": "NM903909",
      "source": "Database of British and Irish Hills v18.4"
    },
    {
      "id": "dobih-1490",
      "dobihId": 1490,
      "name": "Carn Mor",
      "list": ["corbetts"],
      "region": "Tomintoul to Banff",
      "heightM": 804,
      "heightFt": 2638,
      "lat": 57.249877,
      "lon": -3.218483,
      "gridRef": "NJ265183",
      "source": "Database of British and Irish Hills v18.4"
    },
    {
      "id": "dobih-599",
      "dobihId": 599,
      "name": "Carn na Drochaide",
      "list": ["corbetts"],
      "region": "Cairngorms",
      "heightM": 818,
      "heightFt": 2684,
      "lat": 57.027417,
      "lon": -3.439163,
      "gridRef": "NO127938",
      "source": "Database of British and Irish Hills v18.4"
    },
    {
      "id": "dobih-1354",
      "dobihId": 1354,
      "name": "Carn na Nathrach",
      "list": ["corbetts"],
      "region": "Sunart and Ardgour",
      "heightM": 786,
      "heightFt": 2579,
      "lat": 56.772398,
      "lon": -5.460755,
      "gridRef": "NM886698",
      "source": "Database of British and Irish Hills v18.4"
    },
    {
      "id": "dobih-639",
      "dobihId": 639,
      "name": "Carn na Saobhaidhe",
      "list": ["corbetts"],
      "region": "Glen Albyn and the Monadh Liath",
      "heightM": 811.1,
      "heightFt": 2661,
      "lat": 57.198966,
      "lon": -4.320534,
      "gridRef": "NH598143",
      "source": "Database of British and Irish Hills v18.4"
    },
    {
      "id": "dobih-1475",
      "dobihId": 1475,
      "name": "Cir Mhor",
      "list": ["corbetts"],
      "region": "Arran and Holy Island",
      "heightM": 798.1,
      "heightFt": 2618,
      "lat": 55.639135,
      "lon": -5.222529,
      "gridRef": "NR972431",
      "source": "Database of British and Irish Hills v18.4"
    },
    {
      "id": "dobih-1423",
      "dobihId": 1423,
      "name": "Cnoc Coinnich",
      "list": ["corbetts"],
      "region": "Loch Fyne to Bute and the Firth of Clyde",
      "heightM": 763.5,
      "heightFt": 2505,
      "lat": 56.16661,
      "lon": -4.846554,
      "gridRef": "NN233007",
      "source": "Database of British and Irish Hills v18.4"
    },
    {
      "id": "dobih-492",
      "dobihId": 492,
      "name": "Conachcraig",
      "list": ["corbetts"],
      "region": "Braemar to Montrose",
      "heightM": 862.5,
      "heightFt": 2830,
      "lat": 56.964274,
      "lon": -3.186547,
      "gridRef": "NO279865",
      "source": "Database of British and Irish Hills v18.4"
    },
    {
      "id": "dobih-1491",
      "dobihId": 1491,
      "name": "Corryhabbie Hill",
      "list": ["corbetts"],
      "region": "Tomintoul to Banff",
      "heightM": 781.3,
      "heightFt": 2563,
      "lat": 57.344617,
      "lon": -3.196412,
      "gridRef": "NJ280288",
      "source": "Database of British and Irish Hills v18.4"
    },
    {
      "id": "dobih-1689",
      "dobihId": 1689,
      "name": "Corserine",
      "list": ["corbetts", "donalds"],
      "region": "Galloway Hills",
      "heightM": 814,
      "heightFt": 2671,
      "lat": 55.155082,
      "lon": -4.35911,
      "gridRef": "NX497870",
      "source": "Database of British and Irish Hills v18.4"
    },
    {
      "id": "dobih-1128",
      "dobihId": 1128,
      "name": "Cranstackie",
      "list": ["corbetts"],
      "region": "Durness to Loch Shin",
      "heightM": 801,
      "heightFt": 2628,
      "lat": 58.457427,
      "lon": -4.828718,
      "gridRef": "NC350556",
      "source": "Database of British and Irish Hills v18.4"
    },
    {
      "id": "dobih-214",
      "dobihId": 214,
      "name": "Creach Bheinn",
      "list": ["corbetts"],
      "region": "Loch Linnhe to Loch Etive",
      "heightM": 810,
      "heightFt": 2657,
      "lat": 56.530501,
      "lon": -5.215024,
      "gridRef": "NN023422",
      "source": "Database of British and Irish Hills v18.4"
    },
    {
      "id": "dobih-1373",
      "dobihId": 1373,
      "name": "Creach Bheinn",
      "list": ["corbetts"],
      "region": "Morvern and Kingairloch",
      "heightM": 853,
      "heightFt": 2799,
      "lat": 56.661979,
      "lon": -5.476201,
      "gridRef": "NM870576",
      "source": "Database of British and Irish Hills v18.4"
    },
    {
      "id": "dobih-596",
      "dobihId": 596,
      "name": "Creag an Dail Bheag",
      "list": ["corbetts"],
      "region": "Cairngorms",
      "heightM": 863,
      "heightFt": 2831,
      "lat": 57.066716,
      "lon": -3.391294,
      "gridRef": "NO157981",
      "source": "Database of British and Irish Hills v18.4"
    },
    {
      "id": "dobih-46",
      "dobihId": 46,
      "name": "Creag Mac Ranaich",
      "list": ["corbetts"],
      "region": "Loch Lomond to Strathyre",
      "heightM": 808.6,
      "heightFt": 2653,
      "lat": 56.399885,
      "lon": -4.358052,
      "gridRef": "NN545255",
      "source": "Database of British and Irish Hills v18.4"
    },
    {
      "id": "dobih-594",
      "dobihId": 594,
      "name": "Creag Mhor",
      "list": ["corbetts"],
      "region": "Cairngorms",
      "heightM": 895,
      "heightFt": 2936,
      "lat": 57.124246,
      "lon": -3.558432,
      "gridRef": "NJ057047",
      "source": "Database of British and Irish Hills v18.4"
    },
    {
      "id": "dobih-494",
      "dobihId": 494,
      "name": "Creag nan Gabhar",
      "list": ["corbetts"],
      "region": "Braemar to Montrose",
      "heightM": 834,
      "heightFt": 2736,
      "lat": 56.940524,
      "lon": -3.391006,
      "gridRef": "NO154841",
      "source": "Database of British and Irish Hills v18.4"
    },
    {
      "id": "dobih-1029",
      "dobihId": 1029,
      "name": "Creag Rainich",
      "list": ["corbetts"],
      "region": "Loch Maree to Loch Broom",
      "heightM": 807.9,
      "heightFt": 2651,
      "lat": 57.725658,
      "lon": -5.199021,
      "gridRef": "NH096751",
      "source": "Database of British and Irish Hills v18.4"
    },
    {
      "id": "dobih-3",
      "dobihId": 3,
      "name": "Creag Uchdag",
      "list": ["corbetts"],
      "region": "Loch Tay to Perth",
      "heightM": 878.8,
      "heightFt": 2883,
      "lat": 56.465278,
      "lon": -4.098123,
      "gridRef": "NN708323",
      "source": "Database of British and Irish Hills v18.4"
    },
    {
      "id": "dobih-2",
      "dobihId": 2,
      "name": "Creagan na Beinne",
      "list": ["corbetts"],
      "region": "Loch Tay to Perth",
      "heightM": 889.1,
      "heightFt": 2917,
      "lat": 56.506927,
      "lon": -4.041708,
      "gridRef": "NN744368",
      "source": "Database of British and Irish Hills v18.4"
    },
    {
      "id": "dobih-328",
      "dobihId": 328,
      "name": "Cruach Innse",
      "list": ["corbetts"],
      "region": "Fort William to Loch Treig & Loch Leven",
      "heightM": 857,
      "heightFt": 2812,
      "lat": 56.846831,
      "lon": -4.821935,
      "gridRef": "NN279763",
      "source": "Database of British and Irish Hills v18.4"
    },
    {
      "id": "dobih-1207",
      "dobihId": 1207,
      "name": "Cul Beag",
      "list": ["corbetts"],
      "region": "Lochinver to Ullapool",
      "heightM": 769.4,
      "heightFt": 2524,
      "lat": 58.029562,
      "lon": -5.151013,
      "gridRef": "NC140088",
      "source": "Database of British and Irish Hills v18.4"
    },
    {
      "id": "dobih-1205",
      "dobihId": 1205,
      "name": "Cul Mor",
      "list": ["corbetts"],
      "region": "Lochinver to Ullapool",
      "heightM": 849.7,
      "heightFt": 2788,
      "lat": 58.058124,
      "lon": -5.116768,
      "gridRef": "NC162119",
      "source": "Database of British and Irish Hills v18.4"
    },
    {
      "id": "dobih-593",
      "dobihId": 593,
      "name": "Culardoch",
      "list": ["corbetts"],
      "region": "Cairngorms",
      "heightM": 900,
      "heightFt": 2953,
      "lat": 57.073355,
      "lon": -3.331871,
      "gridRef": "NO193988",
      "source": "Database of British and Irish Hills v18.4"
    },
    {
      "id": "dobih-719",
      "dobihId": 719,
      "name": "Druim nan Cnamh [Beinn Loinne]",
      "list": ["corbetts"],
      "region": "Glen Shiel to Loch Hourn and Loch Quoich",
      "heightM": 789,
      "heightFt": 2589,
      "lat": 57.122044,
      "lon": -5.089278,
      "gridRef": "NH130076",
      "source": "Database of British and Irish Hills v18.4"
    },
    {
      "id": "dobih-1357",
      "dobihId": 1357,
      "name": "Druim Tarsuinn [Stob a' Bhealach an Sgriodain]",
      "list": ["corbetts"],
      "region": "Sunart and Ardgour",
      "heightM": 771.9,
      "heightFt": 2532,
      "lat": 56.797505,
      "lon": -5.482142,
      "gridRef": "NM874727",
      "source": "Database of British and Irish Hills v18.4"
    },
    {
      "id": "dobih-1302",
      "dobihId": 1302,
      "name": "Dun da Ghaoithe",
      "list": ["corbetts"],
      "region": "Mull and Nearby Islands",
      "heightM": 766,
      "heightFt": 2513,
      "lat": 56.460438,
      "lon": -5.779508,
      "gridRef": "NM672362",
      "source": "Database of British and Irish Hills v18.4"
    },
    {
      "id": "dobih-942",
      "dobihId": 942,
      "name": "Faochaig",
      "list": ["corbetts"],
      "region": "Killilan to Inverness",
      "heightM": 868.9,
      "heightFt": 2851,
      "lat": 57.332915,
      "lon": -5.288039,
      "gridRef": "NH021317",
      "source": "Database of British and Irish Hills v18.4"
    },
    {
      "id": "dobih-136",
      "dobihId": 136,
      "name": "Farragon Hill",
      "list": ["corbetts"],
      "region": "Loch Rannoch to Glen Lyon",
      "heightM": 782.4,
      "heightFt": 2567,
      "lat": 56.675072,
      "lon": -3.894209,
      "gridRef": "NN840553",
      "source": "Database of British and Irish Hills v18.4"
    },
    {
      "id": "dobih-1124",
      "dobihId": 1124,
      "name": "Foinaven [Foinne Bhein] - Ganu Mor",
      "list": ["corbetts"],
      "region": "Durness to Loch Shin",
      "heightM": 911.05,
      "heightFt": 2989,
      "lat": 58.41206,
      "lon": -4.885699,
      "gridRef": "NC315506",
      "source": "Database of British and Irish Hills v18.4"
    },
    {
      "id": "dobih-748",
      "dobihId": 748,
      "name": "Fraoch Bheinn",
      "list": ["corbetts"],
      "region": "Knoydart to Glen Kingie",
      "heightM": 857.3,
      "heightFt": 2813,
      "lat": 56.993464,
      "lon": -5.316913,
      "gridRef": "NM986940",
      "source": "Database of British and Irish Hills v18.4"
    },
    {
      "id": "dobih-212",
      "dobihId": 212,
      "name": "Fraochaidh",
      "list": ["corbetts"],
      "region": "Loch Linnhe to Loch Etive",
      "heightM": 879,
      "heightFt": 2884,
      "lat": 56.615678,
      "lon": -5.213625,
      "gridRef": "NN029517",
      "source": "Database of British and Irish Hills v18.4"
    },
    {
      "id": "dobih-1374",
      "dobihId": 1374,
      "name": "Fuar Bheinn",
      "list": ["corbetts"],
      "region": "Morvern and Kingairloch",
      "heightM": 766,
      "heightFt": 2513,
      "lat": 56.649493,
      "lon": -5.503056,
      "gridRef": "NM853563",
      "source": "Database of British and Irish Hills v18.4"
    },
    {
      "id": "dobih-984",
      "dobihId": 984,
      "name": "Fuar Tholl",
      "list": ["corbetts"],
      "region": "Applecross to Achnasheen",
      "heightM": 907,
      "heightFt": 2976,
      "lat": 57.485367,
      "lon": -5.379187,
      "gridRef": "NG975489",
      "source": "Database of British and Irish Hills v18.4"
    },
    {
      "id": "dobih-631",
      "dobihId": 631,
      "name": "Gairbeinn",
      "list": ["corbetts"],
      "region": "Glen Albyn and the Monadh Liath",
      "heightM": 895.5,
      "heightFt": 2938,
      "lat": 57.051993,
      "lon": -4.539681,
      "gridRef": "NN460985",
      "source": "Database of British and Irish Hills v18.4"
    },
    {
      "id": "dobih-185",
      "dobihId": 185,
      "name": "Garbh Bheinn",
      "list": ["corbetts"],
      "region": "Loch Leven to Rannoch Station",
      "heightM": 867,
      "heightFt": 2844,
      "lat": 56.696593,
      "lon": -4.991428,
      "gridRef": "NN169600",
      "source": "Database of British and Irish Hills v18.4"
    },
    {
      "id": "dobih-1350",
      "dobihId": 1350,
      "name": "Garbh Bheinn",
      "list": ["corbetts"],
      "region": "Sunart and Ardgour",
      "heightM": 885.6,
      "heightFt": 2906,
      "lat": 56.704449,
      "lon": -5.425008,
      "gridRef": "NM904622",
      "source": "Database of British and Irish Hills v18.4"
    },
    {
      "id": "dobih-1262",
      "dobihId": 1262,
      "name": "Garbh-bheinn",
      "list": ["corbetts"],
      "region": "Minginish and the Cuillin Hills",
      "heightM": 808.3,
      "heightFt": 2652,
      "lat": 57.233105,
      "lon": -6.092474,
      "gridRef": "NG531232",
      "source": "Database of British and Irish Hills v18.4"
    },
    {
      "id": "dobih-598",
      "dobihId": 598,
      "name": "Geal Charn",
      "list": ["corbetts"],
      "region": "Cairngorms",
      "heightM": 820.6,
      "heightFt": 2692,
      "lat": 57.196016,
      "lon": -3.506737,
      "gridRef": "NJ090126",
      "source": "Database of British and Irish Hills v18.4"
    },
    {
      "id": "dobih-766",
      "dobihId": 766,
      "name": "Geal Charn",
      "list": ["corbetts"],
      "region": "Loch Arkaig to Glen Moriston",
      "heightM": 804,
      "heightFt": 2638,
      "lat": 57.002603,
      "lon": -5.037525,
      "gridRef": "NN156942",
      "source": "Database of British and Irish Hills v18.4"
    },
    {
      "id": "dobih-636",
      "dobihId": 636,
      "name": "Geal-charn Mor",
      "list": ["corbetts"],
      "region": "Glen Albyn and the Monadh Liath",
      "heightM": 824.1,
      "heightFt": 2704,
      "lat": 57.186936,
      "lon": -3.926905,
      "gridRef": "NH836123",
      "source": "Database of British and Irish Hills v18.4"
    },
    {
      "id": "dobih-1263",
      "dobihId": 1263,
      "name": "Glamaig - Sgurr Mhairi",
      "list": ["corbetts"],
      "region": "Minginish and the Cuillin Hills",
      "heightM": 775,
      "heightFt": 2543,
      "lat": 57.292718,
      "lon": -6.1284,
      "gridRef": "NG513300",
      "source": "Database of British and Irish Hills v18.4"
    },
    {
      "id": "dobih-331",
      "dobihId": 331,
      "name": "Glas Bheinn",
      "list": ["corbetts"],
      "region": "Fort William to Loch Treig & Loch Leven",
      "heightM": 789.8,
      "heightFt": 2591,
      "lat": 56.736083,
      "lon": -4.847886,
      "gridRef": "NN258641",
      "source": "Database of British and Irish Hills v18.4"
    },
    {
      "id": "dobih-1191",
      "dobihId": 1191,
      "name": "Glas Bheinn",
      "list": ["corbetts"],
      "region": "Scourie to Lairg",
      "heightM": 776,
      "heightFt": 2546,
      "lat": 58.19268,
      "lon": -4.970573,
      "gridRef": "NC254265",
      "source": "Database of British and Irish Hills v18.4"
    },
    {
      "id": "dobih-1472",
      "dobihId": 1472,
      "name": "Goatfell [Goat Fell]",
      "list": ["corbetts"],
      "region": "Arran and Holy Island",
      "heightM": 875,
      "heightFt": 2871,
      "lat": 55.62584,
      "lon": -5.191882,
      "gridRef": "NR991415",
      "source": "Database of British and Irish Hills v18.4"
    },
    {
      "id": "dobih-1835",
      "dobihId": 1835,
      "name": "Hart Fell",
      "list": ["corbetts", "donalds"],
      "region": "Moffat Hills",
      "heightM": 808,
      "heightFt": 2651,
      "lat": 55.408052,
      "lon": -3.401411,
      "gridRef": "NT113135",
      "source": "Database of British and Irish Hills v18.4"
    },
    {
      "id": "dobih-413",
      "dobihId": 413,
      "name": "Leathad an Taobhain",
      "list": ["corbetts"],
      "region": "Glen Tromie to Glen Tilt",
      "heightM": 911.7,
      "heightFt": 2991,
      "lat": 56.948651,
      "lon": -3.938647,
      "gridRef": "NN821858",
      "source": "Database of British and Irish Hills v18.4"
    },
    {
      "id": "dobih-327",
      "dobihId": 327,
      "name": "Leum Uilleim",
      "list": ["corbetts"],
      "region": "Fort William to Loch Treig & Loch Leven",
      "heightM": 906.5,
      "heightFt": 2974,
      "lat": 56.73893,
      "lon": -4.730756,
      "gridRef": "NN330641",
      "source": "Database of British and Irish Hills v18.4"
    },
    {
      "id": "dobih-1097",
      "dobihId": 1097,
      "name": "Little Wyvis",
      "list": ["corbetts"],
      "region": "Loch Vaich to Moray Firth",
      "heightM": 763,
      "heightFt": 2503,
      "lat": 57.642775,
      "lon": -4.632641,
      "gridRef": "NH429644",
      "source": "Database of British and Irish Hills v18.4"
    },
    {
      "id": "dobih-330",
      "dobihId": 330,
      "name": "Mam na Gualainn",
      "list": ["corbetts"],
      "region": "Fort William to Loch Treig & Loch Leven",
      "heightM": 796.5,
      "heightFt": 2613,
      "lat": 56.716417,
      "lon": -5.081568,
      "gridRef": "NN115625",
      "source": "Database of British and Irish Hills v18.4"
    },
    {
      "id": "dobih-601",
      "dobihId": 601,
      "name": "Meall a' Bhuachaille",
      "list": ["corbetts"],
      "region": "Cairngorms",
      "heightM": 810,
      "heightFt": 2657,
      "lat": 57.183541,
      "lon": -3.671105,
      "gridRef": "NH990115",
      "source": "Database of British and Irish Hills v18.4"
    },
    {
      "id": "dobih-972",
      "dobihId": 972,
      "name": "Meall a' Ghiuthais [Meall a' Ghiubhais]",
      "list": ["corbetts"],
      "region": "Loch Torridon to Loch Maree",
      "heightM": 887,
      "heightFt": 2910,
      "lat": 57.615182,
      "lon": -5.390202,
      "gridRef": "NG976634",
      "source": "Database of British and Irish Hills v18.4"
    },
    {
      "id": "dobih-784",
      "dobihId": 784,
      "name": "Meall a' Phubuill",
      "list": ["corbetts"],
      "region": "Mallaig to Fort William",
      "heightM": 772.7,
      "heightFt": 2535,
      "lat": 56.918009,
      "lon": -5.239026,
      "gridRef": "NN029854",
      "source": "Database of British and Irish Hills v18.4"
    },
    {
      "id": "dobih-83",
      "dobihId": 83,
      "name": "Meall an Fhudair",
      "list": ["corbetts"],
      "region": "Inveraray to Crianlarich",
      "heightM": 764,
      "heightFt": 2507,
      "lat": 56.33389,
      "lon": -4.798859,
      "gridRef": "NN270192",
      "source": "Database of British and Irish Hills v18.4"
    },
    {
      "id": "dobih-44",
      "dobihId": 44,
      "name": "Meall an t-Seallaidh",
      "list": ["corbetts"],
      "region": "Loch Lomond to Strathyre",
      "heightM": 852.7,
      "heightFt": 2798,
      "lat": 56.380412,
      "lon": -4.362599,
      "gridRef": "NN542234",
      "source": "Database of British and Irish Hills v18.4"
    },
    {
      "id": "dobih-130",
      "dobihId": 130,
      "name": "Meall Buidhe",
      "list": ["corbetts"],
      "region": "Loch Rannoch to Glen Lyon",
      "heightM": 908.4,
      "heightFt": 2980,
      "lat": 56.570153,
      "lon": -4.562,
      "gridRef": "NN426449",
      "source": "Database of British and Irish Hills v18.4"
    },
    {
      "id": "dobih-767",
      "dobihId": 767,
      "name": "Meall Dubh",
      "list": ["corbetts"],
      "region": "Loch Arkaig to Glen Moriston",
      "heightM": 789,
      "heightFt": 2589,
      "lat": 57.127923,
      "lon": -4.900448,
      "gridRef": "NH245078",
      "source": "Database of British and Irish Hills v18.4"
    },
    {
      "id": "dobih-1130",
      "dobihId": 1130,
      "name": "Meall Horn",
      "list": ["corbetts"],
      "region": "Durness to Loch Shin",
      "heightM": 776.7,
      "heightFt": 2548,
      "lat": 58.361681,
      "lon": -4.817596,
      "gridRef": "NC352449",
      "source": "Database of British and Irish Hills v18.4"
    },
    {
      "id": "dobih-215",
      "dobihId": 215,
      "name": "Meall Lighiche",
      "list": ["corbetts"],
      "region": "Loch Linnhe to Loch Etive",
      "heightM": 772,
      "heightFt": 2533,
      "lat": 56.62848,
      "lon": -5.107498,
      "gridRef": "NN094528",
      "source": "Database of British and Irish Hills v18.4"
    },
    {
      "id": "dobih-20",
      "dobihId": 20,
      "name": "Meall na Fearna",
      "list": ["corbetts"],
      "region": "Strathyre to Strathallan",
      "heightM": 810,
      "heightFt": 2657,
      "lat": 56.341247,
      "lon": -4.184316,
      "gridRef": "NN650186",
      "source": "Database of British and Irish Hills v18.4"
    },
    {
      "id": "dobih-634",
      "dobihId": 634,
      "name": "Meall na h-Aisre",
      "list": ["corbetts"],
      "region": "Glen Albyn and the Monadh Liath",
      "heightM": 862.1,
      "heightFt": 2828,
      "lat": 57.067555,
      "lon": -4.45009,
      "gridRef": "NH515000",
      "source": "Database of British and Irish Hills v18.4"
    },
    {
      "id": "dobih-764",
      "dobihId": 764,
      "name": "Meall na h-Eilde",
      "list": ["corbetts"],
      "region": "Loch Arkaig to Glen Moriston",
      "heightM": 837.2,
      "heightFt": 2747,
      "lat": 57.007038,
      "lon": -4.989602,
      "gridRef": "NN185946",
      "source": "Database of British and Irish Hills v18.4"
    },
    {
      "id": "dobih-402",
      "dobihId": 402,
      "name": "Meall na Leitreach",
      "list": ["corbetts"],
      "region": "Loch Ericht to Glen Tromie & Glen Garry",
      "heightM": 777.1,
      "heightFt": 2550,
      "lat": 56.804048,
      "lon": -4.227975,
      "gridRef": "NN640702",
      "source": "Database of British and Irish Hills v18.4"
    },
    {
      "id": "dobih-176",
      "dobihId": 176,
      "name": "Meall nam Maigheach",
      "list": ["corbetts"],
      "region": "Glen Lyon to Glen Dochart & Loch Tay",
      "heightM": 778.9,
      "heightFt": 2555,
      "lat": 56.563015,
      "lon": -4.302682,
      "gridRef": "NN585436",
      "source": "Database of British and Irish Hills v18.4"
    },
    {
      "id": "dobih-175",
      "dobihId": 175,
      "name": "Meall nan Subh",
      "list": ["corbetts"],
      "region": "Glen Lyon to Glen Dochart & Loch Tay",
      "heightM": 806,
      "heightFt": 2644,
      "lat": 56.524497,
      "lon": -4.503808,
      "gridRef": "NN460397",
      "source": "Database of British and Irish Hills v18.4"
    },
    {
      "id": "dobih-135",
      "dobihId": 135,
      "name": "Meall Tairneachan",
      "list": ["corbetts"],
      "region": "Loch Rannoch to Glen Lyon",
      "heightM": 787,
      "heightFt": 2582,
      "lat": 56.665904,
      "lon": -3.947406,
      "gridRef": "NN807543",
      "source": "Database of British and Irish Hills v18.4"
    },
    {
      "id": "dobih-420",
      "dobihId": 420,
      "name": "Meallach Mhor",
      "list": ["corbetts"],
      "region": "Glen Tromie to Glen Tilt",
      "heightM": 769,
      "heightFt": 2523,
      "lat": 56.9928,
      "lon": -4.015269,
      "gridRef": "NN776908",
      "source": "Database of British and Irish Hills v18.4"
    },
    {
      "id": "dobih-1127",
      "dobihId": 1127,
      "name": "Meallan Liath Coire Mhic Dhughaill",
      "list": ["corbetts"],
      "region": "Durness to Loch Shin",
      "heightM": 800.8,
      "heightFt": 2627,
      "lat": 58.310083,
      "lon": -4.805669,
      "gridRef": "NC357391",
      "source": "Database of British and Irish Hills v18.4"
    },
    {
      "id": "dobih-909",
      "dobihId": 909,
      "name": "Meallan nan Uan",
      "list": ["corbetts"],
      "region": "Kyle of Lochalsh to Garve",
      "heightM": 838.3,
      "heightFt": 2750,
      "lat": 57.546917,
      "lon": -4.902996,
      "gridRef": "NH263544",
      "source": "Database of British and Irish Hills v18.4"
    },
    {
      "id": "dobih-1688",
      "dobihId": 1688,
      "name": "Merrick",
      "list": ["corbetts", "donalds"],
      "region": "Galloway Hills",
      "heightM": 843,
      "heightFt": 2766,
      "lat": 55.139271,
      "lon": -4.468411,
      "gridRef": "NX427855",
      "source": "Database of British and Irish Hills v18.4"
    },
    {
      "id": "dobih-495",
      "dobihId": 495,
      "name": "Monamenach",
      "list": ["corbetts"],
      "region": "Braemar to Montrose",
      "heightM": 807,
      "heightFt": 2648,
      "lat": 56.820195,
      "lon": -3.351546,
      "gridRef": "NO176706",
      "source": "Database of British and Irish Hills v18.4"
    },
    {
      "id": "dobih-444",
      "dobihId": 444,
      "name": "Morrone",
      "list": ["corbetts"],
      "region": "Pitlochry to Braemar & Blairgowrie",
      "heightM": 859.5,
      "heightFt": 2820,
      "lat": 56.980808,
      "lon": -3.429564,
      "gridRef": "NO132886",
      "source": "Database of British and Irish Hills v18.4"
    },
    {
      "id": "dobih-1488",
      "dobihId": 1488,
      "name": "Morven",
      "list": ["corbetts"],
      "region": "Tomintoul to Banff",
      "heightM": 872,
      "heightFt": 2861,
      "lat": 57.122639,
      "lon": -3.03088,
      "gridRef": "NJ376039",
      "source": "Database of British and Irish Hills v18.4"
    },
    {
      "id": "dobih-496",
      "dobihId": 496,
      "name": "Mount Battock",
      "list": ["corbetts"],
      "region": "Braemar to Montrose",
      "heightM": 778,
      "heightFt": 2552,
      "lat": 56.949266,
      "lon": -2.741962,
      "gridRef": "NO549844",
      "source": "Database of British and Irish Hills v18.4"
    },
    {
      "id": "dobih-1188",
      "dobihId": 1188,
      "name": "Quinag - Sail Gharbh",
      "list": ["corbetts"],
      "region": "Scourie to Lairg",
      "heightM": 809,
      "heightFt": 2654,
      "lat": 58.215146,
      "lon": -5.049904,
      "gridRef": "NC209292",
      "source": "Database of British and Irish Hills v18.4"
    },
    {
      "id": "dobih-1190",
      "dobihId": 1190,
      "name": "Quinag - Sail Ghorm [Sail Gorm]",
      "list": ["corbetts"],
      "region": "Scourie to Lairg",
      "heightM": 776,
      "heightFt": 2546,
      "lat": 58.225604,
      "lon": -5.069525,
      "gridRef": "NC198304",
      "source": "Database of British and Irish Hills v18.4"
    },
    {
      "id": "dobih-1192",
      "dobihId": 1192,
      "name": "Quinag - Spidean Coinich",
      "list": ["corbetts"],
      "region": "Scourie to Lairg",
      "heightM": 764,
      "heightFt": 2507,
      "lat": 58.20188,
      "lon": -5.054453,
      "gridRef": "NC206277",
      "source": "Database of British and Irish Hills v18.4"
    },
    {
      "id": "dobih-1334",
      "dobihId": 1334,
      "name": "Rois-Bheinn",
      "list": ["corbetts"],
      "region": "Moidart and Ardnamurchan",
      "heightM": 882.4,
      "heightFt": 2895,
      "lat": 56.837627,
      "lon": -5.680392,
      "gridRef": "NM756778",
      "source": "Database of British and Irish Hills v18.4"
    },
    {
      "id": "dobih-971",
      "dobihId": 971,
      "name": "Ruadh-stac Beag",
      "list": ["corbetts"],
      "region": "Loch Torridon to Loch Maree",
      "heightM": 896,
      "heightFt": 2940,
      "lat": 57.596383,
      "lon": -5.393975,
      "gridRef": "NG972613",
      "source": "Database of British and Irish Hills v18.4"
    },
    {
      "id": "dobih-1031",
      "dobihId": 1031,
      "name": "Sail Mhor",
      "list": ["corbetts"],
      "region": "Loch Maree to Loch Broom",
      "heightM": 766.2,
      "heightFt": 2514,
      "lat": 57.844449,
      "lon": -5.31582,
      "gridRef": "NH032887",
      "source": "Database of British and Irish Hills v18.4"
    },
    {
      "id": "dobih-600",
      "dobihId": 600,
      "name": "Sgor Mor",
      "list": ["corbetts"],
      "region": "Cairngorms",
      "heightM": 813.8,
      "heightFt": 2670,
      "lat": 57.003284,
      "lon": -3.635945,
      "gridRef": "NO007914",
      "source": "Database of British and Irish Hills v18.4"
    },
    {
      "id": "dobih-1355",
      "dobihId": 1355,
      "name": "Sgorr Craobh a' Chaorainn",
      "list": ["corbetts"],
      "region": "Sunart and Ardgour",
      "heightM": 775,
      "heightFt": 2543,
      "lat": 56.825832,
      "lon": -5.45052,
      "gridRef": "NM895757",
      "source": "Database of British and Irish Hills v18.4"
    },
    {
      "id": "dobih-943",
      "dobihId": 943,
      "name": "Sgorr na Diollaid",
      "list": ["corbetts"],
      "region": "Killilan to Inverness",
      "heightM": 817.9,
      "heightFt": 2683,
      "lat": 57.384238,
      "lon": -4.859979,
      "gridRef": "NH281362",
      "source": "Database of British and Irish Hills v18.4"
    },
    {
      "id": "dobih-989",
      "dobihId": 989,
      "name": "Sgorr nan Lochan Uaine",
      "list": ["corbetts"],
      "region": "Applecross to Achnasheen",
      "heightM": 871.3,
      "heightFt": 2859,
      "lat": 57.522771,
      "lon": -5.393259,
      "gridRef": "NG969531",
      "source": "Database of British and Irish Hills v18.4"
    },
    {
      "id": "dobih-941",
      "dobihId": 941,
      "name": "Sguman Coinntich",
      "list": ["corbetts"],
      "region": "Killilan to Inverness",
      "heightM": 879,
      "heightFt": 2884,
      "lat": 57.318788,
      "lon": -5.361312,
      "gridRef": "NG976303",
      "source": "Database of British and Irish Hills v18.4"
    },
    {
      "id": "dobih-990",
      "dobihId": 990,
      "name": "Sgurr a' Chaorachain",
      "list": ["corbetts"],
      "region": "Applecross to Achnasheen",
      "heightM": 793,
      "heightFt": 2602,
      "lat": 57.41256,
      "lon": -5.670405,
      "gridRef": "NG796417",
      "source": "Database of British and Irish Hills v18.4"
    },
    {
      "id": "dobih-742",
      "dobihId": 742,
      "name": "Sgurr a' Choire-bheithe",
      "list": ["corbetts"],
      "region": "Knoydart to Glen Kingie",
      "heightM": 913.32,
      "heightFt": 2996,
      "lat": 57.057215,
      "lon": -5.471305,
      "gridRef": "NG895015",
      "source": "Database of British and Irish Hills v18.4"
    },
    {
      "id": "dobih-903",
      "dobihId": 903,
      "name": "Sgurr a' Mhuilinn",
      "list": ["corbetts"],
      "region": "Kyle of Lochalsh to Garve",
      "heightM": 878.8,
      "heightFt": 2883,
      "lat": 57.558383,
      "lon": -4.902303,
      "gridRef": "NH264557",
      "source": "Database of British and Irish Hills v18.4"
    },
    {
      "id": "dobih-853",
      "dobihId": 853,
      "name": "Sgurr an Airgid",
      "list": ["corbetts"],
      "region": "Loch Duich to Cannich",
      "heightM": 841.2,
      "heightFt": 2760,
      "lat": 57.248583,
      "lon": -5.415509,
      "gridRef": "NG940227",
      "source": "Database of British and Irish Hills v18.4"
    },
    {
      "id": "dobih-743",
      "dobihId": 743,
      "name": "Sgurr an Fhuarain",
      "list": ["corbetts"],
      "region": "Knoydart to Glen Kingie",
      "heightM": 901,
      "heightFt": 2956,
      "lat": 57.028875,
      "lon": -5.317894,
      "gridRef": "NM987979",
      "source": "Database of British and Irish Hills v18.4"
    },
    {
      "id": "dobih-782",
      "dobihId": 782,
      "name": "Sgurr an Utha",
      "list": ["corbetts"],
      "region": "Mallaig to Fort William",
      "heightM": 796,
      "heightFt": 2612,
      "lat": 56.898725,
      "lon": -5.474479,
      "gridRef": "NM885839",
      "source": "Database of British and Irish Hills v18.4"
    },
    {
      "id": "dobih-752",
      "dobihId": 752,
      "name": "Sgurr Coire Choinnichean",
      "list": ["corbetts"],
      "region": "Knoydart to Glen Kingie",
      "heightM": 796,
      "heightFt": 2612,
      "lat": 57.047646,
      "lon": -5.643924,
      "gridRef": "NG790010",
      "source": "Database of British and Irish Hills v18.4"
    },
    {
      "id": "dobih-751",
      "dobihId": 751,
      "name": "Sgurr Cos na Breachd-laoidh",
      "list": ["corbetts"],
      "region": "Knoydart to Glen Kingie",
      "heightM": 835,
      "heightFt": 2740,
      "lat": 56.997562,
      "lon": -5.37875,
      "gridRef": "NM948946",
      "source": "Database of British and Irish Hills v18.4"
    },
    {
      "id": "dobih-1349",
      "dobihId": 1349,
      "name": "Sgurr Dhomhnuill",
      "list": ["corbetts"],
      "region": "Sunart and Ardgour",
      "heightM": 888.4,
      "heightFt": 2915,
      "lat": 56.754656,
      "lon": -5.45377,
      "gridRef": "NM889678",
      "source": "Database of British and Irish Hills v18.4"
    },
    {
      "id": "dobih-991",
      "dobihId": 991,
      "name": "Sgurr Dubh",
      "list": ["corbetts"],
      "region": "Applecross to Achnasheen",
      "heightM": 782,
      "heightFt": 2566,
      "lat": 57.5469,
      "lon": -5.378801,
      "gridRef": "NG979557",
      "source": "Database of British and Irish Hills v18.4"
    },
    {
      "id": "dobih-854",
      "dobihId": 854,
      "name": "Sgurr Gaorsaic",
      "list": ["corbetts"],
      "region": "Loch Duich to Cannich",
      "heightM": 838.2,
      "heightFt": 2750,
      "lat": 57.245819,
      "lon": -5.256676,
      "gridRef": "NH036219",
      "source": "Database of British and Irish Hills v18.4"
    },
    {
      "id": "dobih-1351",
      "dobihId": 1351,
      "name": "Sgurr Ghiubhsachain",
      "list": ["corbetts"],
      "region": "Sunart and Ardgour",
      "heightM": 849,
      "heightFt": 2785,
      "lat": 56.818954,
      "lon": -5.48256,
      "gridRef": "NM875751",
      "source": "Database of British and Irish Hills v18.4"
    },
    {
      "id": "dobih-329",
      "dobihId": 329,
      "name": "Sgurr Innse",
      "list": ["corbetts"],
      "region": "Fort William to Loch Treig & Loch Leven",
      "heightM": 809,
      "heightFt": 2654,
      "lat": 56.833305,
      "lon": -4.80398,
      "gridRef": "NN290748",
      "source": "Database of British and Irish Hills v18.4"
    },
    {
      "id": "dobih-720",
      "dobihId": 720,
      "name": "Sgurr Mhic Bharraich",
      "list": ["corbetts"],
      "region": "Glen Shiel to Loch Hourn and Loch Quoich",
      "heightM": 779,
      "heightFt": 2556,
      "lat": 57.199579,
      "lon": -5.448708,
      "gridRef": "NG917173",
      "source": "Database of British and Irish Hills v18.4"
    },
    {
      "id": "dobih-763",
      "dobihId": 763,
      "name": "Sgurr Mhurlagain",
      "list": ["corbetts"],
      "region": "Knoydart to Glen Kingie",
      "heightM": 880,
      "heightFt": 2887,
      "lat": 56.998469,
      "lon": -5.273676,
      "gridRef": "NN012944",
      "source": "Database of British and Irish Hills v18.4"
    },
    {
      "id": "dobih-1335",
      "dobihId": 1335,
      "name": "Sgurr na Ba Glaise",
      "list": ["corbetts"],
      "region": "Moidart and Ardnamurchan",
      "heightM": 874.1,
      "heightFt": 2868,
      "lat": 56.837438,
      "lon": -5.656867,
      "gridRef": "NM770777",
      "source": "Database of British and Irish Hills v18.4"
    },
    {
      "id": "dobih-906",
      "dobihId": 906,
      "name": "Sgurr na Feartaig",
      "list": ["corbetts"],
      "region": "Kyle of Lochalsh to Garve",
      "heightM": 863,
      "heightFt": 2831,
      "lat": 57.457045,
      "lon": -5.243665,
      "gridRef": "NH055453",
      "source": "Database of British and Irish Hills v18.4"
    },
    {
      "id": "dobih-900",
      "dobihId": 900,
      "name": "Sgurr nan Ceannaichean",
      "list": ["corbetts"],
      "region": "Kyle of Lochalsh to Garve",
      "heightM": 913.43,
      "heightFt": 2997,
      "lat": 57.482307,
      "lon": -5.192321,
      "gridRef": "NH087480",
      "source": "Database of British and Irish Hills v18.4"
    },
    {
      "id": "dobih-744",
      "dobihId": 744,
      "name": "Sgurr nan Eugallt",
      "list": ["corbetts"],
      "region": "Knoydart to Glen Kingie",
      "heightM": 897.5,
      "heightFt": 2945,
      "lat": 57.087957,
      "lon": -5.422642,
      "gridRef": "NG927048",
      "source": "Database of British and Irish Hills v18.4"
    },
    {
      "id": "dobih-1692",
      "dobihId": 1692,
      "name": "Shalloch on Minnoch",
      "list": ["corbetts", "donalds"],
      "region": "Galloway Hills",
      "heightM": 774.2,
      "heightFt": 2540,
      "lat": 55.183666,
      "lon": -4.502466,
      "gridRef": "NX407905",
      "source": "Database of British and Irish Hills v18.4"
    },
    {
      "id": "dobih-133",
      "dobihId": 133,
      "name": "Sron a' Choire Chnapanaich [Sron a' Choire Chnapanich]",
      "list": ["corbetts"],
      "region": "Loch Rannoch to Glen Lyon",
      "heightM": 835,
      "heightFt": 2740,
      "lat": 56.574164,
      "lon": -4.514809,
      "gridRef": "NN456452",
      "source": "Database of British and Irish Hills v18.4"
    },
    {
      "id": "dobih-43",
      "dobihId": 43,
      "name": "Stob a' Choin",
      "list": ["corbetts"],
      "region": "Loch Lomond to Strathyre",
      "heightM": 867.2,
      "heightFt": 2845,
      "lat": 56.309673,
      "lon": -4.560163,
      "gridRef": "NN417159",
      "source": "Database of British and Irish Hills v18.4"
    },
    {
      "id": "dobih-396",
      "dobihId": 396,
      "name": "Stob an Aonaich Mhoir",
      "list": ["corbetts"],
      "region": "Loch Ericht to Glen Tromie & Glen Garry",
      "heightM": 855.6,
      "heightFt": 2807,
      "lat": 56.793311,
      "lon": -4.396093,
      "gridRef": "NN537694",
      "source": "Database of British and Irish Hills v18.4"
    },
    {
      "id": "dobih-1356",
      "dobihId": 1356,
      "name": "Stob Coire a' Chearcaill",
      "list": ["corbetts"],
      "region": "Sunart and Ardgour",
      "heightM": 771,
      "heightFt": 2530,
      "lat": 56.803245,
      "lon": -5.249612,
      "gridRef": "NN016726",
      "source": "Database of British and Irish Hills v18.4"
    },
    {
      "id": "dobih-82",
      "dobihId": 82,
      "name": "Stob Coire Creagach [Binnein an Fhidhleir]",
      "list": ["corbetts"],
      "region": "Inveraray to Crianlarich",
      "heightM": 817.8,
      "heightFt": 2683,
      "lat": 56.257699,
      "lon": -4.858,
      "gridRef": "NN230109",
      "source": "Database of British and Irish Hills v18.4"
    },
    {
      "id": "dobih-263",
      "dobihId": 263,
      "name": "Stob Dubh",
      "list": ["corbetts"],
      "region": "Glen Etive to Glen Lochy",
      "heightM": 883,
      "heightFt": 2897,
      "lat": 56.595405,
      "lon": -4.988114,
      "gridRef": "NN166488",
      "source": "Database of British and Irish Hills v18.4"
    },
    {
      "id": "dobih-777",
      "dobihId": 777,
      "name": "Streap",
      "list": ["corbetts"],
      "region": "Mallaig to Fort William",
      "heightM": 909,
      "heightFt": 2982,
      "lat": 56.923006,
      "lon": -5.375537,
      "gridRef": "NM946863",
      "source": "Database of British and Irish Hills v18.4"
    },
    {
      "id": "dobih-1421",
      "dobihId": 1421,
      "name": "The Brack",
      "list": ["corbetts"],
      "region": "Loch Fyne to Bute and the Firth of Clyde",
      "heightM": 787.5,
      "heightFt": 2584,
      "lat": 56.18776,
      "lon": -4.828552,
      "gridRef": "NN245030",
      "source": "Database of British and Irish Hills v18.4"
    },
    {
      "id": "dobih-79",
      "dobihId": 79,
      "name": "The Cobbler [Ben Arthur]",
      "list": ["corbetts"],
      "region": "Inveraray to Crianlarich",
      "heightM": 884,
      "heightFt": 2900,
      "lat": 56.213019,
      "lon": -4.808024,
      "gridRef": "NN259058",
      "source": "Database of British and Irish Hills v18.4"
    },
    {
      "id": "dobih-370",
      "dobihId": 370,
      "name": "The Fara",
      "list": ["corbetts"],
      "region": "Loch Treig to Loch Ericht",
      "heightM": 911.4,
      "heightFt": 2990,
      "lat": 56.928381,
      "lon": -4.30487,
      "gridRef": "NN598842",
      "source": "Database of British and Irish Hills v18.4"
    },
    {
      "id": "dobih-401",
      "dobihId": 401,
      "name": "The Sow of Atholl [Meall an Dobharchain]",
      "list": ["corbetts"],
      "region": "Loch Ericht to Glen Tromie & Glen Garry",
      "heightM": 798.9,
      "heightFt": 2621,
      "lat": 56.838103,
      "lon": -4.255181,
      "gridRef": "NN625741",
      "source": "Database of British and Irish Hills v18.4"
    },
    {
      "id": "dobih-1832",
      "dobihId": 1832,
      "name": "White Coomb",
      "list": ["corbetts", "donalds"],
      "region": "Moffat Hills",
      "heightM": 821.6,
      "heightFt": 2696,
      "lat": 55.422587,
      "lon": -3.32365,
      "gridRef": "NT163150",
      "source": "Database of British and Irish Hills v18.4"
    }
  ]
}
