{
  "metadata": {
    "source": "Database of British and Irish Hills v18.4",
    "license": "CC BY 4.0",
    "sourceUrl": "https://www.hill-bagging.co.uk/dobih",
    "downloadedFrom": "https://www.hill-bagging.co.uk/dobih-downloads/hillcsv.zip",
    "changes": "Trimmed to Corbett Tops and reformatted from DoBIH v18.4",
    "generatedAt": "2026-07-16",
    "count": 453
  },
  "peaks": [
    {
      "id": "dobih-183",
      "dobihId": 183,
      "name": "A' Chailleach",
      "list": ["corbett-tops", "humps", "simms"],
      "region": "Loch Leven to Rannoch Station",
      "heightM": 902.1,
      "heightFt": 2960,
      "lat": 56.678043,
      "lon": -4.957461,
      "gridRef": "NN189579",
      "source": "Database of British and Irish Hills v18.4"
    },
    {
      "id": "dobih-3282",
      "dobihId": 3282,
      "name": "A' Cheir Ghorm [A' Che'ir Ghorm]",
      "list": ["corbett-tops", "simms"],
      "region": "Durness to Loch Shin",
      "heightM": 866.6,
      "heightFt": 2843,
      "lat": 58.400884,
      "lon": -4.878399,
      "gridRef": "NC318494",
      "source": "Database of British and Irish Hills v18.4"
    },
    {
      "id": "dobih-3039",
      "dobihId": 3039,
      "name": "A' Chioch",
      "list": ["corbett-tops", "simms"],
      "region": "Glen Tromie to Glen Tilt",
      "heightM": 893.4,
      "heightFt": 2931,
      "lat": 56.934974,
      "lon": -3.983417,
      "gridRef": "NN794843",
      "source": "Database of British and Irish Hills v18.4"
    },
    {
      "id": "dobih-3256",
      "dobihId": 3256,
      "name": "A' Chioch",
      "list": ["corbett-tops", "simms"],
      "region": "Applecross to Achnasheen",
      "heightM": 762.4,
      "heightFt": 2501,
      "lat": 57.439225,
      "lon": -5.650654,
      "gridRef": "NG810446",
      "source": "Database of British and Irish Hills v18.4"
    },
    {
      "id": "dobih-3301",
      "dobihId": 3301,
      "name": "A' Chioch",
      "list": ["corbett-tops", "simms"],
      "region": "Mull and Nearby Islands",
      "heightM": 867.8,
      "heightFt": 2847,
      "lat": 56.427742,
      "lon": -5.999295,
      "gridRef": "NM535333",
      "source": "Database of British and Irish Hills v18.4"
    },
    {
      "id": "dobih-2953",
      "dobihId": 2953,
      "name": "A' Chrois",
      "list": ["corbett-tops", "humps", "simms"],
      "region": "Inveraray to Crianlarich",
      "heightM": 848.7,
      "heightFt": 2784,
      "lat": 56.231334,
      "lon": -4.762743,
      "gridRef": "NN288077",
      "source": "Database of British and Irish Hills v18.4"
    },
    {
      "id": "dobih-3024",
      "dobihId": 3024,
      "name": "A' Mharconaich",
      "list": ["corbett-tops", "simms"],
      "region": "Loch Ericht to Glen Tromie & Glen Garry",
      "heightM": 882.3,
      "heightFt": 2895,
      "lat": 56.937185,
      "lon": -4.124441,
      "gridRef": "NN708848",
      "source": "Database of British and Irish Hills v18.4"
    },
    {
      "id": "dobih-714",
      "dobihId": 714,
      "name": "Am Bathaich",
      "list": ["corbett-tops", "humps", "simms"],
      "region": "Glen Shiel to Loch Hourn and Loch Quoich",
      "heightM": 899.5,
      "heightFt": 2951,
      "lat": 57.114804,
      "lon": -5.324043,
      "gridRef": "NG988075",
      "source": "Database of British and Irish Hills v18.4"
    },
    {
      "id": "dobih-3032",
      "dobihId": 3032,
      "name": "Am Meadar",
      "list": ["corbett-tops", "simms"],
      "region": "Loch Ericht to Glen Tromie & Glen Garry",
      "heightM": 802.7,
      "heightFt": 2634,
      "lat": 56.882664,
      "lon": -4.128831,
      "gridRef": "NN703788",
      "source": "Database of British and Irish Hills v18.4"
    },
    {
      "id": "dobih-3297",
      "dobihId": 3297,
      "name": "An Caisteal",
      "list": ["corbett-tops", "simms"],
      "region": "Minginish and the Cuillin Hills",
      "heightM": 830,
      "heightFt": 2723,
      "lat": 57.240105,
      "lon": -6.210001,
      "gridRef": "NG460244",
      "source": "Database of British and Irish Hills v18.4"
    },
    {
      "id": "dobih-3238",
      "dobihId": 3238,
      "name": "An Creachal Beag",
      "list": ["corbett-tops", "simms"],
      "region": "Killilan to Inverness",
      "heightM": 870,
      "heightFt": 2854,
      "lat": 57.348049,
      "lon": -5.215182,
      "gridRef": "NH066331",
      "source": "Database of British and Irish Hills v18.4"
    },
    {
      "id": "dobih-3185",
      "dobihId": 3185,
      "name": "An Eag",
      "list": ["corbett-tops", "simms"],
      "region": "Knoydart to Glen Kingie",
      "heightM": 871.5,
      "heightFt": 2859,
      "lat": 57.007998,
      "lon": -5.388397,
      "gridRef": "NM943958",
      "source": "Database of British and Irish Hills v18.4"
    },
    {
      "id": "dobih-2965",
      "dobihId": 2965,
      "name": "An Grianan",
      "list": ["corbett-tops", "humps", "simms"],
      "region": "Loch Rannoch to Glen Lyon",
      "heightM": 862.6,
      "heightFt": 2830,
      "lat": 56.554055,
      "lon": -4.473344,
      "gridRef": "NN480429",
      "source": "Database of British and Irish Hills v18.4"
    },
    {
      "id": "dobih-3217",
      "dobihId": 3217,
      "name": "An Reithe",
      "list": ["corbett-tops", "simms"],
      "region": "Glen Affric to Glen Moriston",
      "heightM": 844.5,
      "heightFt": 2771,
      "lat": 57.187926,
      "lon": -5.055694,
      "gridRef": "NH154149",
      "source": "Database of British and Irish Hills v18.4"
    },
    {
      "id": "dobih-3027",
      "dobihId": 3027,
      "name": "An Sgulan",
      "list": ["corbett-tops", "simms"],
      "region": "Loch Ericht to Glen Tromie & Glen Garry",
      "heightM": 865,
      "heightFt": 2838,
      "lat": 56.819352,
      "lon": -4.343742,
      "gridRef": "NN570722",
      "source": "Database of British and Irish Hills v18.4"
    },
    {
      "id": "dobih-852",
      "dobihId": 852,
      "name": "An Socach East Top",
      "list": ["corbett-tops", "simms"],
      "region": "Loch Duich to Cannich",
      "heightM": 903.8,
      "heightFt": 2965,
      "lat": 57.261714,
      "lon": -5.163043,
      "gridRef": "NH093234",
      "source": "Database of British and Irish Hills v18.4"
    },
    {
      "id": "dobih-3137",
      "dobihId": 3137,
      "name": "An Staonaig",
      "list": ["corbett-tops", "simms"],
      "region": "Glen Albyn and the Monadh Liath",
      "heightM": 838.5,
      "heightFt": 2751,
      "lat": 57.122137,
      "lon": -4.342126,
      "gridRef": "NH582059",
      "source": "Database of British and Irish Hills v18.4"
    },
    {
      "id": "dobih-3143",
      "dobihId": 3143,
      "name": "An Staonaig West Top",
      "list": ["corbett-tops", "simms"],
      "region": "Glen Albyn and the Monadh Liath",
      "heightM": 823.2,
      "heightFt": 2701,
      "lat": 57.118311,
      "lon": -4.364004,
      "gridRef": "NH569055",
      "source": "Database of British and Irish Hills v18.4"
    },
    {
      "id": "dobih-3286",
      "dobihId": 3286,
      "name": "An t-Sail Mhor",
      "list": ["corbett-tops", "simms"],
      "region": "Durness to Loch Shin",
      "heightM": 778,
      "heightFt": 2552,
      "lat": 58.392083,
      "lon": -4.843948,
      "gridRef": "NC338483",
      "source": "Database of British and Irish Hills v18.4"
    },
    {
      "id": "dobih-3304",
      "dobihId": 3304,
      "name": "An t-Slat-bheinn",
      "list": ["corbett-tops", "simms"],
      "region": "Moidart and Ardnamurchan",
      "heightM": 830,
      "heightFt": 2723,
      "lat": 56.838406,
      "lon": -5.643461,
      "gridRef": "NM778778",
      "source": "Database of British and Irish Hills v18.4"
    },
    {
      "id": "dobih-3191",
      "dobihId": 3191,
      "name": "An t-Uiriollach",
      "list": ["corbett-tops", "simms"],
      "region": "Knoydart to Glen Kingie",
      "heightM": 826,
      "heightFt": 2710,
      "lat": 57.032358,
      "lon": -5.561333,
      "gridRef": "NM839991",
      "source": "Database of British and Irish Hills v18.4"
    },
    {
      "id": "dobih-2990",
      "dobihId": 2990,
      "name": "Aonach Dubh",
      "list": ["corbett-tops", "simms"],
      "region": "Loch Linnhe to Loch Etive",
      "heightM": 889.9,
      "heightFt": 2920,
      "lat": 56.65773,
      "lon": -5.019895,
      "gridRef": "NN149558",
      "source": "Database of British and Irish Hills v18.4"
    },
    {
      "id": "dobih-2993",
      "dobihId": 2993,
      "name": "Aonach Dubh a' Ghlinne",
      "list": ["corbett-tops", "simms"],
      "region": "Loch Linnhe to Loch Etive",
      "heightM": 844.2,
      "heightFt": 2770,
      "lat": 56.634664,
      "lon": -5.066951,
      "gridRef": "NN119534",
      "source": "Database of British and Irish Hills v18.4"
    },
    {
      "id": "dobih-3664",
      "dobihId": 3664,
      "name": "Aonach Eagach East Peak",
      "list": ["corbett-tops", "simms"],
      "region": "Loch Leven to Rannoch Station",
      "heightM": 906.2,
      "heightFt": 2973,
      "lat": 56.67978,
      "lon": -5.012859,
      "gridRef": "NN155582",
      "source": "Database of British and Irish Hills v18.4"
    },
    {
      "id": "dobih-184",
      "dobihId": 184,
      "name": "Aonach Eagach West Peak",
      "list": ["corbett-tops", "simms"],
      "region": "Loch Leven to Rannoch Station",
      "heightM": 904.7,
      "heightFt": 2968,
      "lat": 56.679715,
      "lon": -5.015875,
      "gridRef": "NN153582",
      "source": "Database of British and Irish Hills v18.4"
    },
    {
      "id": "dobih-3004",
      "dobihId": 3004,
      "name": "Aonach Mor",
      "list": ["corbett-tops", "simms"],
      "region": "Glen Etive to Glen Lochy",
      "heightM": 867,
      "heightFt": 2844,
      "lat": 56.589143,
      "lon": -4.901116,
      "gridRef": "NN219479",
      "source": "Database of British and Irish Hills v18.4"
    },
    {
      "id": "dobih-901",
      "dobihId": 901,
      "name": "Aonach na Reise [Sgurr na Ruaidhe East Top]",
      "list": ["corbett-tops", "simms"],
      "region": "Kyle of Lochalsh to Garve",
      "heightM": 911.9,
      "heightFt": 2992,
      "lat": 57.444161,
      "lon": -4.827579,
      "gridRef": "NH304428",
      "source": "Database of British and Irish Hills v18.4"
    },
    {
      "id": "dobih-750",
      "dobihId": 750,
      "name": "Aonach Sgoilte",
      "list": ["corbett-tops", "humps", "simms"],
      "region": "Knoydart to Glen Kingie",
      "heightM": 848.4,
      "heightFt": 2783,
      "lat": 57.064574,
      "lon": -5.564042,
      "gridRef": "NG840027",
      "source": "Database of British and Irish Hills v18.4"
    },
    {
      "id": "dobih-3066",
      "dobihId": 3066,
      "name": "Bac na Creige",
      "list": ["corbett-tops", "simms"],
      "region": "Glen Tromie to Glen Tilt",
      "heightM": 771.2,
      "heightFt": 2530,
      "lat": 56.892953,
      "lon": -4.013402,
      "gridRef": "NN774797",
      "source": "Database of British and Irish Hills v18.4"
    },
    {
      "id": "dobih-3139",
      "dobihId": 3139,
      "name": "Bac nam Fuaran",
      "list": ["corbett-tops", "simms"],
      "region": "Glen Albyn and the Monadh Liath",
      "heightM": 830.2,
      "heightFt": 2724,
      "lat": 57.07299,
      "lon": -4.580866,
      "gridRef": "NH436009",
      "source": "Database of British and Irish Hills v18.4"
    },
    {
      "id": "dobih-3247",
      "dobihId": 3247,
      "name": "Baosbheinn East Top",
      "list": ["corbett-tops", "humps", "simms"],
      "region": "Loch Torridon to Loch Maree",
      "heightM": 805,
      "heightFt": 2641,
      "lat": 57.626477,
      "lon": -5.557081,
      "gridRef": "NG877651",
      "source": "Database of British and Irish Hills v18.4"
    },
    {
      "id": "dobih-3246",
      "dobihId": 3246,
      "name": "Baosbheinn North Top",
      "list": ["corbett-tops", "simms"],
      "region": "Loch Torridon to Loch Maree",
      "heightM": 841,
      "heightFt": 2759,
      "lat": 57.630744,
      "lon": -5.572783,
      "gridRef": "NG867657",
      "source": "Database of British and Irish Hills v18.4"
    },
    {
      "id": "dobih-3102",
      "dobihId": 3102,
      "name": "Bawhelps",
      "list": ["corbett-tops", "simms"],
      "region": "Braemar to Montrose",
      "heightM": 828.1,
      "heightFt": 2717,
      "lat": 56.834789,
      "lon": -3.268767,
      "gridRef": "NO226721",
      "source": "Database of British and Irish Hills v18.4"
    },
    {
      "id": "dobih-3009",
      "dobihId": 3009,
      "name": "Beinn a' Bhric",
      "list": ["corbett-tops", "simms"],
      "region": "Fort William to Loch Treig & Loch Leven",
      "heightM": 874.2,
      "heightFt": 2868,
      "lat": 56.73929,
      "lon": -4.751601,
      "gridRef": "NN317642",
      "source": "Database of British and Irish Hills v18.4"
    },
    {
      "id": "dobih-3038",
      "dobihId": 3038,
      "name": "Beinn a' Chait",
      "list": ["corbett-tops", "humps", "simms"],
      "region": "Glen Tromie to Glen Tilt",
      "heightM": 898.5,
      "heightFt": 2948,
      "lat": 56.851199,
      "lon": -3.862692,
      "gridRef": "NN864748",
      "source": "Database of British and Irish Hills v18.4"
    },
    {
      "id": "dobih-3306",
      "dobihId": 3306,
      "name": "Beinn a' Chaorainn",
      "list": ["corbett-tops", "simms"],
      "region": "Moidart and Ardnamurchan",
      "heightM": 774,
      "heightFt": 2539,
      "lat": 56.836354,
      "lon": -5.543699,
      "gridRef": "NM839772",
      "source": "Database of British and Irish Hills v18.4"
    },
    {
      "id": "dobih-6663",
      "dobihId": 6663,
      "name": "Beinn a' Chlaidheimh South Top",
      "list": ["corbett-tops", "simms"],
      "region": "Loch Maree to Loch Broom",
      "heightM": 813.8,
      "heightFt": 2670,
      "lat": 57.738263,
      "lon": -5.260522,
      "gridRef": "NH060767",
      "source": "Database of British and Irish Hills v18.4"
    },
    {
      "id": "dobih-3140",
      "dobihId": 3140,
      "name": "Beinn a' Chrasgain",
      "list": ["corbett-tops", "simms"],
      "region": "Glen Albyn and the Monadh Liath",
      "heightM": 826.7,
      "heightFt": 2712,
      "lat": 57.053003,
      "lon": -4.299051,
      "gridRef": "NN606981",
      "source": "Database of British and Irish Hills v18.4"
    },
    {
      "id": "dobih-3122",
      "dobihId": 3122,
      "name": "Beinn a' Chruinnich",
      "list": ["corbett-tops", "simms"],
      "region": "Cairngorms",
      "heightM": 777.6,
      "heightFt": 2551,
      "lat": 57.202944,
      "lon": -3.264057,
      "gridRef": "NJ237131",
      "source": "Database of British and Irish Hills v18.4"
    },
    {
      "id": "dobih-372",
      "dobihId": 372,
      "name": "Beinn a' Chumhainn",
      "list": ["corbett-tops", "humps", "simms"],
      "region": "Loch Treig to Loch Ericht",
      "heightM": 901.9,
      "heightFt": 2959,
      "lat": 56.805339,
      "lon": -4.519496,
      "gridRef": "NN462710",
      "source": "Database of British and Irish Hills v18.4"
    },
    {
      "id": "dobih-3218",
      "dobihId": 3218,
      "name": "Beinn an Iomaire",
      "list": ["corbett-tops", "simms"],
      "region": "Glen Affric to Glen Moriston",
      "heightM": 772.3,
      "heightFt": 2534,
      "lat": 57.20202,
      "lon": -5.044952,
      "gridRef": "NH161164",
      "source": "Database of British and Irish Hills v18.4"
    },
    {
      "id": "dobih-781",
      "dobihId": 781,
      "name": "Beinn an Tuim",
      "list": ["corbett-tops", "humps", "simms"],
      "region": "Mallaig to Fort William",
      "heightM": 812.7,
      "heightFt": 2666,
      "lat": 56.896876,
      "lon": -5.401581,
      "gridRef": "NM929835",
      "source": "Database of British and Irish Hills v18.4"
    },
    {
      "id": "dobih-3206",
      "dobihId": 3206,
      "name": "Beinn an Tuim South Top",
      "list": ["corbett-tops", "simms"],
      "region": "Mallaig to Fort William",
      "heightM": 798.2,
      "heightFt": 2619,
      "lat": 56.894822,
      "lon": -5.398749,
      "gridRef": "NM930833",
      "source": "Database of British and Irish Hills v18.4"
    },
    {
      "id": "dobih-3257",
      "dobihId": 3257,
      "name": "Beinn Bhan South Top",
      "list": ["corbett-tops", "simms"],
      "region": "Applecross to Achnasheen",
      "heightM": 763.6,
      "heightFt": 2505,
      "lat": 57.43292,
      "lon": -5.644224,
      "gridRef": "NG813439",
      "source": "Database of British and Irish Hills v18.4"
    },
    {
      "id": "dobih-3034",
      "dobihId": 3034,
      "name": "Beinn Bhoidheach",
      "list": ["corbett-tops", "simms"],
      "region": "Loch Ericht to Glen Tromie & Glen Garry",
      "heightM": 790.3,
      "heightFt": 2593,
      "lat": 56.759658,
      "lon": -4.345371,
      "gridRef": "NN567655",
      "source": "Database of British and Irish Hills v18.4"
    },
    {
      "id": "dobih-2985",
      "dobihId": 2985,
      "name": "Beinn Bhreac",
      "list": ["corbett-tops", "simms"],
      "region": "Glen Lyon to Glen Dochart & Loch Tay",
      "heightM": 797.8,
      "heightFt": 2617,
      "lat": 56.464735,
      "lon": -4.434916,
      "gridRef": "NN500329",
      "source": "Database of British and Irish Hills v18.4"
    },
    {
      "id": "dobih-3136",
      "dobihId": 3136,
      "name": "Beinn Bhreac",
      "list": ["corbett-tops", "simms"],
      "region": "Glen Albyn and the Monadh Liath",
      "heightM": 843.4,
      "heightFt": 2767,
      "lat": 57.136111,
      "lon": -4.083406,
      "gridRef": "NH740069",
      "source": "Database of British and Irish Hills v18.4"
    },
    {
      "id": "dobih-3150",
      "dobihId": 3150,
      "name": "Beinn Bhreac Mhor",
      "list": ["corbett-tops", "simms"],
      "region": "Glen Albyn and the Monadh Liath",
      "heightM": 807,
      "heightFt": 2648,
      "lat": 57.250265,
      "lon": -4.192643,
      "gridRef": "NH678198",
      "source": "Database of British and Irish Hills v18.4"
    },
    {
      "id": "dobih-3051",
      "dobihId": 3051,
      "name": "Beinn Bhreac NW Top",
      "list": ["corbett-tops", "simms"],
      "region": "Glen Tromie to Glen Tilt",
      "heightM": 837.2,
      "heightFt": 2747,
      "lat": 56.925911,
      "lon": -3.867088,
      "gridRef": "NN864831",
      "source": "Database of British and Irish Hills v18.4"
    },
    {
      "id": "dobih-3211",
      "dobihId": 3211,
      "name": "Beinn Bhuidhe",
      "list": ["corbett-tops", "simms"],
      "region": "Loch Duich to Cannich",
      "heightM": 869.5,
      "heightFt": 2853,
      "lat": 57.209061,
      "lon": -5.363365,
      "gridRef": "NG969181",
      "source": "Database of British and Irish Hills v18.4"
    },
    {
      "id": "dobih-77",
      "dobihId": 77,
      "name": "Beinn Bhuidhe East Top",
      "list": ["corbett-tops", "simms"],
      "region": "Inveraray to Crianlarich",
      "heightM": 903,
      "heightFt": 2963,
      "lat": 56.332287,
      "lon": -4.891682,
      "gridRef": "NN213193",
      "source": "Database of British and Irish Hills v18.4"
    },
    {
      "id": "dobih-3164",
      "dobihId": 3164,
      "name": "Beinn Bhuraich",
      "list": ["corbett-tops", "simms"],
      "region": "Glen Albyn and the Monadh Liath",
      "heightM": 781,
      "heightFt": 2562,
      "lat": 57.210603,
      "lon": -4.349037,
      "gridRef": "NH582157",
      "source": "Database of British and Irish Hills v18.4"
    },
    {
      "id": "dobih-3005",
      "dobihId": 3005,
      "name": "Beinn Ceitlein",
      "list": ["corbett-tops", "simms"],
      "region": "Glen Etive to Glen Lochy",
      "heightM": 845,
      "heightFt": 2772,
      "lat": 56.595864,
      "lon": -4.975751,
      "gridRef": "NN173488",
      "source": "Database of British and Irish Hills v18.4"
    },
    {
      "id": "dobih-78",
      "dobihId": 78,
      "name": "Beinn Chorranach",
      "list": ["corbett-tops", "humps", "simms"],
      "region": "Inveraray to Crianlarich",
      "heightM": 887.6,
      "heightFt": 2912,
      "lat": 56.246693,
      "lon": -4.818191,
      "gridRef": "NN254095",
      "source": "Database of British and Irish Hills v18.4"
    },
    {
      "id": "dobih-2961",
      "dobihId": 2961,
      "name": "Beinn Chuirn South Top",
      "list": ["corbett-tops", "simms"],
      "region": "Inveraray to Crianlarich",
      "heightM": 773,
      "heightFt": 2536,
      "lat": 56.416761,
      "lon": -4.798556,
      "gridRef": "NN274284",
      "source": "Database of British and Irish Hills v18.4"
    },
    {
      "id": "dobih-3305",
      "dobihId": 3305,
      "name": "Beinn Coire nan Gall",
      "list": ["corbett-tops", "simms"],
      "region": "Moidart and Ardnamurchan",
      "heightM": 788.1,
      "heightFt": 2586,
      "lat": 56.856813,
      "lon": -5.622982,
      "gridRef": "NM792797",
      "source": "Database of British and Irish Hills v18.4"
    },
    {
      "id": "dobih-3259",
      "dobihId": 3259,
      "name": "Beinn Dearg Mor East Top",
      "list": ["corbett-tops", "simms"],
      "region": "Loch Maree to Loch Broom",
      "heightM": 835,
      "heightFt": 2740,
      "lat": 57.764382,
      "lon": -5.299812,
      "gridRef": "NH038797",
      "source": "Database of British and Irish Hills v18.4"
    },
    {
      "id": "dobih-2960",
      "dobihId": 2960,
      "name": "Beinn Dubh",
      "list": ["corbett-tops", "simms"],
      "region": "Inveraray to Crianlarich",
      "heightM": 774.4,
      "heightFt": 2541,
      "lat": 56.264641,
      "lon": -4.787369,
      "gridRef": "NN274115",
      "source": "Database of British and Irish Hills v18.4"
    },
    {
      "id": "dobih-3002",
      "dobihId": 3002,
      "name": "Beinn Eunaich East Top",
      "list": ["corbett-tops", "simms"],
      "region": "Glen Etive to Glen Lochy",
      "heightM": 880,
      "heightFt": 2887,
      "lat": 56.456764,
      "lon": -5.011775,
      "gridRef": "NN145334",
      "source": "Database of British and Irish Hills v18.4"
    },
    {
      "id": "dobih-2996",
      "dobihId": 2996,
      "name": "Beinn Fhada Far East Top",
      "list": ["corbett-tops", "simms"],
      "region": "Loch Linnhe to Loch Etive",
      "heightM": 823,
      "heightFt": 2700,
      "lat": 56.651046,
      "lon": -4.986969,
      "gridRef": "NN169550",
      "source": "Database of British and Irish Hills v18.4"
    },
    {
      "id": "dobih-2994",
      "dobihId": 2994,
      "name": "Beinn Fhionnlaidh East Top",
      "list": ["corbett-tops", "simms"],
      "region": "Loch Linnhe to Loch Etive",
      "heightM": 841,
      "heightFt": 2759,
      "lat": 56.601658,
      "lon": -5.085395,
      "gridRef": "NN106497",
      "source": "Database of British and Irish Hills v18.4"
    },
    {
      "id": "dobih-778",
      "dobihId": 778,
      "name": "Beinn Gharbh",
      "list": ["corbett-tops", "humps", "simms"],
      "region": "Mallaig to Fort William",
      "heightM": 895.3,
      "heightFt": 2937,
      "lat": 56.931614,
      "lon": -5.482456,
      "gridRef": "NM882876",
      "source": "Database of British and Irish Hills v18.4"
    },
    {
      "id": "dobih-3204",
      "dobihId": 3204,
      "name": "Beinn Gharbh",
      "list": ["corbett-tops", "simms"],
      "region": "Mallaig to Fort William",
      "heightM": 825,
      "heightFt": 2707,
      "lat": 56.938132,
      "lon": -5.41603,
      "gridRef": "NM922881",
      "source": "Database of British and Irish Hills v18.4"
    },
    {
      "id": "dobih-3250",
      "dobihId": 3250,
      "name": "Beinn Liath Mhor East Top",
      "list": ["corbett-tops", "simms"],
      "region": "Applecross to Achnasheen",
      "heightM": 887.3,
      "heightFt": 2911,
      "lat": 57.510941,
      "lon": -5.382889,
      "gridRef": "NG974518",
      "source": "Database of British and Irish Hills v18.4"
    },
    {
      "id": "dobih-3251",
      "dobihId": 3251,
      "name": "Beinn Liath Mhor Far East Top",
      "list": ["corbett-tops", "simms"],
      "region": "Applecross to Achnasheen",
      "heightM": 875.4,
      "heightFt": 2872,
      "lat": 57.508791,
      "lon": -5.36851,
      "gridRef": "NG983515",
      "source": "Database of British and Irish Hills v18.4"
    },
    {
      "id": "dobih-3255",
      "dobihId": 3255,
      "name": "Beinn Liath Mhor South Top",
      "list": ["corbett-tops", "simms"],
      "region": "Applecross to Achnasheen",
      "heightM": 769,
      "heightFt": 2523,
      "lat": 57.506459,
      "lon": -5.411785,
      "gridRef": "NG957513",
      "source": "Database of British and Irish Hills v18.4"
    },
    {
      "id": "dobih-3184",
      "dobihId": 3184,
      "name": "Beinn Loinne",
      "list": ["corbett-tops", "simms"],
      "region": "Glen Shiel to Loch Hourn and Loch Quoich",
      "heightM": 775,
      "heightFt": 2543,
      "lat": 57.123526,
      "lon": -5.054863,
      "gridRef": "NH151077",
      "source": "Database of British and Irish Hills v18.4"
    },
    {
      "id": "dobih-3061",
      "dobihId": 3061,
      "name": "Beinn Losgarnaich",
      "list": ["corbett-tops", "simms"],
      "region": "Glen Tromie to Glen Tilt",
      "heightM": 784.4,
      "heightFt": 2573,
      "lat": 56.886727,
      "lon": -3.90622,
      "gridRef": "NN839788",
      "source": "Database of British and Irish Hills v18.4"
    },
    {
      "id": "dobih-3012",
      "dobihId": 3012,
      "name": "Beinn na Caillich",
      "list": ["corbett-tops", "humps", "simms"],
      "region": "Fort William to Loch Treig & Loch Leven",
      "heightM": 765.9,
      "heightFt": 2513,
      "lat": 56.719668,
      "lon": -5.040016,
      "gridRef": "NN140627",
      "source": "Database of British and Irish Hills v18.4"
    },
    {
      "id": "dobih-3314",
      "dobihId": 3314,
      "name": "Beinn Nuis",
      "list": ["corbett-tops", "simms"],
      "region": "Arran and Holy Island",
      "heightM": 792.8,
      "heightFt": 2601,
      "lat": 55.609666,
      "lon": -5.247318,
      "gridRef": "NR955399",
      "source": "Database of British and Irish Hills v18.4"
    },
    {
      "id": "dobih-3303",
      "dobihId": 3303,
      "name": "Beinn Odhar Mhor",
      "list": ["corbett-tops", "humps", "simms"],
      "region": "Moidart and Ardnamurchan",
      "heightM": 870.2,
      "heightFt": 2855,
      "lat": 56.853486,
      "lon": -5.525432,
      "gridRef": "NM851791",
      "source": "Database of British and Irish Hills v18.4"
    },
    {
      "id": "dobih-3020",
      "dobihId": 3020,
      "name": "Beinn Pharlagain",
      "list": ["corbett-tops", "simms"],
      "region": "Loch Treig to Loch Ericht",
      "heightM": 806.7,
      "heightFt": 2647,
      "lat": 56.734472,
      "lon": -4.543529,
      "gridRef": "NN445632",
      "source": "Database of British and Irish Hills v18.4"
    },
    {
      "id": "dobih-3127",
      "dobihId": 3127,
      "name": "Beinn Sgiath",
      "list": ["corbett-tops", "simms"],
      "region": "Glen Albyn and the Monadh Liath",
      "heightM": 886.8,
      "heightFt": 2909,
      "lat": 57.05177,
      "lon": -4.364818,
      "gridRef": "NN566981",
      "source": "Database of British and Irish Hills v18.4"
    },
    {
      "id": "dobih-709",
      "dobihId": 709,
      "name": "Beinn Sgritheall East Top",
      "list": ["corbett-tops", "simms"],
      "region": "Glen Shiel to Loch Hourn and Loch Quoich",
      "heightM": 906,
      "heightFt": 2972,
      "lat": 57.151369,
      "lon": -5.563974,
      "gridRef": "NG845123",
      "source": "Database of British and Irish Hills v18.4"
    },
    {
      "id": "dobih-210",
      "dobihId": 210,
      "name": "Beinn Sgulaird North Top",
      "list": ["corbett-tops", "simms"],
      "region": "Loch Linnhe to Loch Etive",
      "heightM": 909,
      "heightFt": 2982,
      "lat": 56.568032,
      "lon": -5.166739,
      "gridRef": "NN055462",
      "source": "Database of British and Irish Hills v18.4"
    },
    {
      "id": "dobih-2991",
      "dobihId": 2991,
      "name": "Beinn Sgulaird South Top",
      "list": ["corbett-tops", "simms"],
      "region": "Loch Linnhe to Loch Etive",
      "heightM": 863,
      "heightFt": 2831,
      "lat": 56.5543,
      "lon": -5.185937,
      "gridRef": "NN042448",
      "source": "Database of British and Irish Hills v18.4"
    },
    {
      "id": "dobih-3233",
      "dobihId": 3233,
      "name": "Beinn Tharsuinn West Top",
      "list": ["corbett-tops", "simms"],
      "region": "Kyle of Lochalsh to Garve",
      "heightM": 795,
      "heightFt": 2608,
      "lat": 57.434939,
      "lon": -5.261857,
      "gridRef": "NH043429",
      "source": "Database of British and Irish Hills v18.4"
    },
    {
      "id": "dobih-3006",
      "dobihId": 3006,
      "name": "Beinn Toaig",
      "list": ["corbett-tops", "simms"],
      "region": "Glen Etive to Glen Lochy",
      "heightM": 832.3,
      "heightFt": 2731,
      "lat": 56.569185,
      "lon": -4.83034,
      "gridRef": "NN262455",
      "source": "Database of British and Irish Hills v18.4"
    },
    {
      "id": "dobih-3079",
      "dobihId": 3079,
      "name": "Ben Earb",
      "list": ["corbett-tops", "simms"],
      "region": "Pitlochry to Braemar & Blairgowrie",
      "heightM": 801.7,
      "heightFt": 2630,
      "lat": 56.804907,
      "lon": -3.509566,
      "gridRef": "NO079691",
      "source": "Database of British and Irish Hills v18.4"
    },
    {
      "id": "dobih-3283",
      "dobihId": 3283,
      "name": "Ben Hee North Top",
      "list": ["corbett-tops", "simms"],
      "region": "Durness to Loch Shin",
      "heightM": 851,
      "heightFt": 2792,
      "lat": 58.276168,
      "lon": -4.670667,
      "gridRef": "NC434350",
      "source": "Database of British and Irish Hills v18.4"
    },
    {
      "id": "dobih-2959",
      "dobihId": 2959,
      "name": "Ben Vorlich South Top",
      "list": ["corbett-tops", "simms"],
      "region": "Inveraray to Crianlarich",
      "heightM": 783.4,
      "heightFt": 2570,
      "lat": 56.261666,
      "lon": -4.739881,
      "gridRef": "NN303110",
      "source": "Database of British and Irish Hills v18.4"
    },
    {
      "id": "dobih-3097",
      "dobihId": 3097,
      "name": "Benty Roads",
      "list": ["corbett-tops", "simms"],
      "region": "Braemar to Montrose",
      "heightM": 842.4,
      "heightFt": 2764,
      "lat": 56.875924,
      "lon": -3.100016,
      "gridRef": "NO330765",
      "source": "Database of British and Irish Hills v18.4"
    },
    {
      "id": "dobih-3296",
      "dobihId": 3296,
      "name": "Bidein Druim nan Ramh",
      "list": ["corbett-tops", "humps", "simms"],
      "region": "Minginish and the Cuillin Hills",
      "heightM": 869,
      "heightFt": 2851,
      "lat": 57.235429,
      "lon": -6.216682,
      "gridRef": "NG456239",
      "source": "Database of British and Irish Hills v18.4"
    },
    {
      "id": "dobih-2954",
      "dobihId": 2954,
      "name": "Binnein an Fhidhleir",
      "list": ["corbett-tops", "humps", "simms"],
      "region": "Inveraray to Crianlarich",
      "heightM": 811,
      "heightFt": 2661,
      "lat": 56.25583,
      "lon": -4.883149,
      "gridRef": "NN214107",
      "source": "Database of British and Irish Hills v18.4"
    },
    {
      "id": "dobih-3111",
      "dobihId": 3111,
      "name": "Black Hill of Mark",
      "list": ["corbett-tops", "simms"],
      "region": "Braemar to Montrose",
      "heightM": 772.9,
      "heightFt": 2536,
      "lat": 56.919169,
      "lon": -3.110733,
      "gridRef": "NO324814",
      "source": "Database of British and Irish Hills v18.4"
    },
    {
      "id": "dobih-3146",
      "dobihId": 3146,
      "name": "Blargie Craig",
      "list": ["corbett-tops", "simms"],
      "region": "Glen Albyn and the Monadh Liath",
      "heightM": 813,
      "heightFt": 2667,
      "lat": 57.040579,
      "lon": -4.304728,
      "gridRef": "NN602967",
      "source": "Database of British and Irish Hills v18.4"
    },
    {
      "id": "dobih-3274",
      "dobihId": 3274,
      "name": "Bodach Beag",
      "list": ["corbett-tops", "humps", "simms"],
      "region": "Loch Broom to Strath Oykel",
      "heightM": 836.2,
      "heightFt": 2743,
      "lat": 57.849219,
      "lon": -4.773521,
      "gridRef": "NH354877",
      "source": "Database of British and Irish Hills v18.4"
    },
    {
      "id": "dobih-3022",
      "dobihId": 3022,
      "name": "Bogha-cloiche",
      "list": ["corbett-tops", "humps", "simms"],
      "region": "Loch Ericht to Glen Tromie & Glen Garry",
      "heightM": 897.4,
      "heightFt": 2944,
      "lat": 56.95477,
      "lon": -4.072568,
      "gridRef": "NN740867",
      "source": "Database of British and Irish Hills v18.4"
    },
    {
      "id": "dobih-3089",
      "dobihId": 3089,
      "name": "Boustie Ley",
      "list": ["corbett-tops", "simms"],
      "region": "Braemar to Montrose",
      "heightM": 875.9,
      "heightFt": 2874,
      "lat": 56.870452,
      "lon": -3.113324,
      "gridRef": "NO322760",
      "source": "Database of British and Irish Hills v18.4"
    },
    {
      "id": "dobih-3087",
      "dobihId": 3087,
      "name": "Braid Cairn",
      "list": ["corbett-tops", "humps", "simms"],
      "region": "Braemar to Montrose",
      "heightM": 887.5,
      "heightFt": 2912,
      "lat": 56.973139,
      "lon": -2.945465,
      "gridRef": "NO426872",
      "source": "Database of British and Irish Hills v18.4"
    },
    {
      "id": "dobih-3056",
      "dobihId": 3056,
      "name": "Braigh Coire Caochan nan Laogh",
      "list": ["corbett-tops", "simms"],
      "region": "Glen Tromie to Glen Tilt",
      "heightM": 798,
      "heightFt": 2618,
      "lat": 56.915833,
      "lon": -3.70916,
      "gridRef": "NN960818",
      "source": "Database of British and Irish Hills v18.4"
    },
    {
      "id": "dobih-3052",
      "dobihId": 3052,
      "name": "Braigh Coire na Conlaich",
      "list": ["corbett-tops", "humps", "simms"],
      "region": "Glen Tromie to Glen Tilt",
      "heightM": 834.7,
      "heightFt": 2739,
      "lat": 56.879754,
      "lon": -3.74196,
      "gridRef": "NN939778",
      "source": "Database of British and Irish Hills v18.4"
    },
    {
      "id": "dobih-3040",
      "dobihId": 3040,
      "name": "Braigh nan Creagan Breac",
      "list": ["corbett-tops", "simms"],
      "region": "Glen Tromie to Glen Tilt",
      "heightM": 884.9,
      "heightFt": 2903,
      "lat": 56.860868,
      "lon": -3.809484,
      "gridRef": "NN897758",
      "source": "Database of British and Irish Hills v18.4"
    },
    {
      "id": "dobih-3042",
      "dobihId": 3042,
      "name": "Braigh Sron Ghorm",
      "list": ["corbett-tops", "simms"],
      "region": "Glen Tromie to Glen Tilt",
      "heightM": 879.1,
      "heightFt": 2884,
      "lat": 56.883436,
      "lon": -3.801662,
      "gridRef": "NN903783",
      "source": "Database of British and Irish Hills v18.4"
    },
    {
      "id": "dobih-3031",
      "dobihId": 3031,
      "name": "Bruthach na Craoibhe [Bruthaich na Craoibhe]",
      "list": ["corbett-tops", "simms"],
      "region": "Loch Ericht to Glen Tromie & Glen Garry",
      "heightM": 822.8,
      "heightFt": 2699,
      "lat": 56.91189,
      "lon": -4.116515,
      "gridRef": "NN712820",
      "source": "Database of British and Irish Hills v18.4"
    },
    {
      "id": "dobih-3048",
      "dobihId": 3048,
      "name": "Bruthach nan Creagan",
      "list": ["corbett-tops", "humps", "simms"],
      "region": "Glen Tromie to Glen Tilt",
      "heightM": 854.5,
      "heightFt": 2803,
      "lat": 56.899004,
      "lon": -4.053467,
      "gridRef": "NN750805",
      "source": "Database of British and Irish Hills v18.4"
    },
    {
      "id": "dobih-3182",
      "dobihId": 3182,
      "name": "Buidhe Bheinn North Top",
      "list": ["corbett-tops", "simms"],
      "region": "Glen Shiel to Loch Hourn and Loch Quoich",
      "heightM": 827,
      "heightFt": 2713,
      "lat": 57.134658,
      "lon": -5.362229,
      "gridRef": "NG966098",
      "source": "Database of British and Irish Hills v18.4"
    },
    {
      "id": "dobih-715",
      "dobihId": 715,
      "name": "Buidhe Bheinn West Top",
      "list": ["corbett-tops", "simms"],
      "region": "Glen Shiel to Loch Hourn and Loch Quoich",
      "heightM": 879,
      "heightFt": 2884,
      "lat": 57.124147,
      "lon": -5.377043,
      "gridRef": "NG956087",
      "source": "Database of British and Irish Hills v18.4"
    },
    {
      "id": "dobih-3141",
      "dobihId": 3141,
      "name": "Burrach Mor",
      "list": ["corbett-tops", "simms"],
      "region": "Glen Albyn and the Monadh Liath",
      "heightM": 827.8,
      "heightFt": 2716,
      "lat": 57.144377,
      "lon": -4.342672,
      "gridRef": "NH583083",
      "source": "Database of British and Irish Hills v18.4"
    },
    {
      "id": "dobih-3155",
      "dobihId": 3155,
      "name": "Burrach Mor South Top",
      "list": ["corbett-tops", "simms"],
      "region": "Glen Albyn and the Monadh Liath",
      "heightM": 801.6,
      "heightFt": 2630,
      "lat": 57.135814,
      "lon": -4.355104,
      "gridRef": "NH575074",
      "source": "Database of British and Irish Hills v18.4"
    },
    {
      "id": "dobih-3183",
      "dobihId": 3183,
      "name": "Cadha nam Bo Ruadha",
      "list": ["corbett-tops", "simms"],
      "region": "Glen Shiel to Loch Hourn and Loch Quoich",
      "heightM": 815,
      "heightFt": 2674,
      "lat": 57.137186,
      "lon": -5.364194,
      "gridRef": "NG965101",
      "source": "Database of British and Irish Hills v18.4"
    },
    {
      "id": "dobih-6855",
      "dobihId": 6855,
      "name": "Caisteal a' Garbh-Choire",
      "list": ["corbett-tops", "simms"],
      "region": "Minginish and the Cuillin Hills",
      "heightM": 829.8,
      "heightFt": 2722,
      "lat": 57.201811,
      "lon": -6.216471,
      "gridRef": "NG454202",
      "source": "Database of British and Irish Hills v18.4"
    },
    {
      "id": "dobih-3093",
      "dobihId": 3093,
      "name": "Caisteal na Caillich",
      "list": ["corbett-tops", "simms"],
      "region": "Braemar to Montrose",
      "heightM": 860.7,
      "heightFt": 2824,
      "lat": 56.972719,
      "lon": -3.182818,
      "gridRef": "NO281874",
      "source": "Database of British and Irish Hills v18.4"
    },
    {
      "id": "dobih-3145",
      "dobihId": 3145,
      "name": "Calpa Mor",
      "list": ["corbett-tops", "simms"],
      "region": "Glen Albyn and the Monadh Liath",
      "heightM": 814,
      "heightFt": 2671,
      "lat": 57.17007,
      "lon": -4.203722,
      "gridRef": "NH668109",
      "source": "Database of British and Irish Hills v18.4"
    },
    {
      "id": "dobih-2947",
      "dobihId": 2947,
      "name": "Cam Chreag",
      "list": ["corbett-tops", "simms"],
      "region": "Loch Lomond to Strathyre",
      "heightM": 812.6,
      "heightFt": 2666,
      "lat": 56.386493,
      "lon": -4.366588,
      "gridRef": "NN539240",
      "source": "Database of British and Irish Hills v18.4"
    },
    {
      "id": "dobih-5843",
      "dobihId": 5843,
      "name": "Cam-Chreag",
      "list": ["corbett-tops", "simms"],
      "region": "Glen Lyon to Glen Dochart & Loch Tay",
      "heightM": 892.5,
      "heightFt": 2928,
      "lat": 56.527303,
      "lon": -4.399887,
      "gridRef": "NN524398",
      "source": "Database of British and Irish Hills v18.4"
    },
    {
      "id": "dobih-1690",
      "dobihId": 1690,
      "name": "Carlin's Cairn",
      "list": ["donalds", "corbett-tops", "simms"],
      "region": "Galloway Hills",
      "heightM": 807,
      "heightFt": 2648,
      "lat": 55.166701,
      "lon": -4.361162,
      "gridRef": "NX496883",
      "source": "Database of British and Irish Hills v18.4"
    },
    {
      "id": "dobih-3133",
      "dobihId": 3133,
      "name": "Carn a' Bhothain Mholaich",
      "list": ["corbett-tops", "simms"],
      "region": "Glen Albyn and the Monadh Liath",
      "heightM": 852.5,
      "heightFt": 2797,
      "lat": 57.13299,
      "lon": -4.140159,
      "gridRef": "NH705067",
      "source": "Database of British and Irish Hills v18.4"
    },
    {
      "id": "dobih-3043",
      "dobihId": 3043,
      "name": "Carn a' Chiaraidh",
      "list": ["corbett-tops", "simms"],
      "region": "Glen Tromie to Glen Tilt",
      "heightM": 871.1,
      "heightFt": 2858,
      "lat": 56.874158,
      "lon": -3.841435,
      "gridRef": "NN878773",
      "source": "Database of British and Irish Hills v18.4"
    },
    {
      "id": "dobih-3070",
      "dobihId": 3070,
      "name": "Carn a' Chlarsaich",
      "list": ["corbett-tops", "simms"],
      "region": "Pitlochry to Braemar & Blairgowrie",
      "heightM": 871.1,
      "heightFt": 2858,
      "lat": 56.882995,
      "lon": -3.529437,
      "gridRef": "NO068778",
      "source": "Database of British and Irish Hills v18.4"
    },
    {
      "id": "dobih-3216",
      "dobihId": 3216,
      "name": "Carn a' Choire Bhuidhe",
      "list": ["corbett-tops", "simms"],
      "region": "Glen Affric to Glen Moriston",
      "heightM": 847,
      "heightFt": 2779,
      "lat": 57.207459,
      "lon": -5.007272,
      "gridRef": "NH184169",
      "source": "Database of British and Irish Hills v18.4"
    },
    {
      "id": "dobih-3162",
      "dobihId": 3162,
      "name": "Carn a' Chuilinn East Top",
      "list": ["corbett-tops", "simms"],
      "region": "Glen Albyn and the Monadh Liath",
      "heightM": 785,
      "heightFt": 2575,
      "lat": 57.099906,
      "lon": -4.588285,
      "gridRef": "NH433039",
      "source": "Database of British and Irish Hills v18.4"
    },
    {
      "id": "dobih-3160",
      "dobihId": 3160,
      "name": "Carn a' Chuilinn Far East Top",
      "list": ["corbett-tops", "simms"],
      "region": "Glen Albyn and the Monadh Liath",
      "heightM": 788,
      "heightFt": 2585,
      "lat": 57.106294,
      "lon": -4.570894,
      "gridRef": "NH443046",
      "source": "Database of British and Irish Hills v18.4"
    },
    {
      "id": "dobih-3170",
      "dobihId": 3170,
      "name": "Carn a' Chuilinn South Top",
      "list": ["corbett-tops", "simms"],
      "region": "Glen Albyn and the Monadh Liath",
      "heightM": 768,
      "heightFt": 2520,
      "lat": 57.086351,
      "lon": -4.618224,
      "gridRef": "NH414025",
      "source": "Database of British and Irish Hills v18.4"
    },
    {
      "id": "dobih-6054",
      "dobihId": 6054,
      "name": "Carn Ait",
      "list": ["corbett-tops", "simms"],
      "region": "Braemar to Montrose",
      "heightM": 864.7,
      "heightFt": 2837,
      "lat": 56.844222,
      "lon": -3.406696,
      "gridRef": "NO142734",
      "source": "Database of British and Irish Hills v18.4"
    },
    {
      "id": "dobih-418",
      "dobihId": 418,
      "name": "Carn an Fhidhleir Lorgaidh",
      "list": ["corbett-tops", "humps", "simms"],
      "region": "Glen Tromie to Glen Tilt",
      "heightM": 848.6,
      "heightFt": 2784,
      "lat": 56.964394,
      "lon": -3.882731,
      "gridRef": "NN856874",
      "source": "Database of British and Irish Hills v18.4"
    },
    {
      "id": "dobih-3134",
      "dobihId": 3134,
      "name": "Carn an Leth-choin",
      "list": ["corbett-tops", "simms"],
      "region": "Glen Albyn and the Monadh Liath",
      "heightM": 844,
      "heightFt": 2769,
      "lat": 57.067462,
      "lon": -4.271505,
      "gridRef": "NN623996",
      "source": "Database of British and Irish Hills v18.4"
    },
    {
      "id": "dobih-6154",
      "dobihId": 6154,
      "name": "Carn Ban Mor West Top",
      "list": ["corbett-tops", "simms"],
      "region": "Cairngorms",
      "heightM": 783,
      "heightFt": 2569,
      "lat": 57.059012,
      "lon": -3.85612,
      "gridRef": "NN875979",
      "source": "Database of British and Irish Hills v18.4"
    },
    {
      "id": "dobih-6006",
      "dobihId": 6006,
      "name": "Carn Bhac South Top",
      "list": ["corbett-tops", "simms"],
      "region": "Pitlochry to Braemar & Blairgowrie",
      "heightM": 817.5,
      "heightFt": 2682,
      "lat": 56.909838,
      "lon": -3.5746,
      "gridRef": "NO042809",
      "source": "Database of British and Irish Hills v18.4"
    },
    {
      "id": "dobih-3118",
      "dobihId": 3118,
      "name": "Carn Bheadhair",
      "list": ["corbett-tops", "humps", "simms"],
      "region": "Cairngorms",
      "heightM": 804.3,
      "heightFt": 2639,
      "lat": 57.185985,
      "lon": -3.565102,
      "gridRef": "NJ054116",
      "source": "Database of British and Irish Hills v18.4"
    },
    {
      "id": "dobih-3168",
      "dobihId": 3168,
      "name": "Carn Choire Odhair",
      "list": ["corbett-tops", "simms"],
      "region": "Glen Albyn and the Monadh Liath",
      "heightM": 772.2,
      "heightFt": 2533,
      "lat": 57.200555,
      "lon": -4.124235,
      "gridRef": "NH717141",
      "source": "Database of British and Irish Hills v18.4"
    },
    {
      "id": "dobih-2939",
      "dobihId": 2939,
      "name": "Carn Chois",
      "list": ["corbett-tops", "humps", "simms"],
      "region": "Loch Tay to Perth",
      "heightM": 786,
      "heightFt": 2579,
      "lat": 56.42641,
      "lon": -3.960864,
      "gridRef": "NN791277",
      "source": "Database of British and Irish Hills v18.4"
    },
    {
      "id": "dobih-3280",
      "dobihId": 3280,
      "name": "Carn Chuinneag West Top",
      "list": ["corbett-tops", "simms"],
      "region": "Loch Vaich to Moray Firth",
      "heightM": 829,
      "heightFt": 2720,
      "lat": 57.813873,
      "lon": -4.568476,
      "gridRef": "NH475833",
      "source": "Database of British and Irish Hills v18.4"
    },
    {
      "id": "dobih-3142",
      "dobihId": 3142,
      "name": "Carn Coire na Creiche",
      "list": ["corbett-tops", "simms"],
      "region": "Glen Albyn and the Monadh Liath",
      "heightM": 825.7,
      "heightFt": 2709,
      "lat": 57.148248,
      "lon": -4.27791,
      "gridRef": "NH622086",
      "source": "Database of British and Irish Hills v18.4"
    },
    {
      "id": "dobih-3158",
      "dobihId": 3158,
      "name": "Carn Coire na h-Easgainn",
      "list": ["corbett-tops", "simms"],
      "region": "Glen Albyn and the Monadh Liath",
      "heightM": 791.1,
      "heightFt": 2595,
      "lat": 57.195579,
      "lon": -4.09091,
      "gridRef": "NH737135",
      "source": "Database of British and Irish Hills v18.4"
    },
    {
      "id": "dobih-3067",
      "dobihId": 3067,
      "name": "Carn Creagach",
      "list": ["corbett-tops", "humps", "simms"],
      "region": "Pitlochry to Braemar & Blairgowrie",
      "heightM": 893.5,
      "heightFt": 2931,
      "lat": 56.929125,
      "lon": -3.530749,
      "gridRef": "NO069830",
      "source": "Database of British and Irish Hills v18.4"
    },
    {
      "id": "dobih-3116",
      "dobihId": 3116,
      "name": "Carn Crom",
      "list": ["corbett-tops", "simms"],
      "region": "Cairngorms",
      "heightM": 890.8,
      "heightFt": 2923,
      "lat": 57.039191,
      "lon": -3.610757,
      "gridRef": "NO023953",
      "source": "Database of British and Irish Hills v18.4"
    },
    {
      "id": "dobih-3071",
      "dobihId": 3071,
      "name": "Carn Dallaig",
      "list": ["corbett-tops", "simms"],
      "region": "Pitlochry to Braemar & Blairgowrie",
      "heightM": 857.9,
      "heightFt": 2815,
      "lat": 56.855639,
      "lon": -3.615538,
      "gridRef": "NO015749",
      "source": "Database of British and Irish Hills v18.4"
    },
    {
      "id": "dobih-3035",
      "dobihId": 3035,
      "name": "Carn Dearg",
      "list": ["corbett-tops", "simms"],
      "region": "Loch Ericht to Glen Tromie & Glen Garry",
      "heightM": 785.6,
      "heightFt": 2577,
      "lat": 56.776168,
      "lon": -4.401024,
      "gridRef": "NN533675",
      "source": "Database of British and Irish Hills v18.4"
    },
    {
      "id": "dobih-3082",
      "dobihId": 3082,
      "name": "Carn Dearg",
      "list": ["corbett-tops", "simms"],
      "region": "Pitlochry to Braemar & Blairgowrie",
      "heightM": 786,
      "heightFt": 2579,
      "lat": 56.829079,
      "lon": -3.568358,
      "gridRef": "NO043719",
      "source": "Database of British and Irish Hills v18.4"
    },
    {
      "id": "dobih-3285",
      "dobihId": 3285,
      "name": "Carn Dearg",
      "list": ["corbett-tops", "simms"],
      "region": "Durness to Loch Shin",
      "heightM": 797.3,
      "heightFt": 2616,
      "lat": 58.308801,
      "lon": -4.771727,
      "gridRef": "NC377389",
      "source": "Database of British and Irish Hills v18.4"
    },
    {
      "id": "dobih-5982",
      "dobihId": 5982,
      "name": "Carn Dearg",
      "list": ["corbett-tops", "simms"],
      "region": "Glen Tromie to Glen Tilt",
      "heightM": 792.1,
      "heightFt": 2599,
      "lat": 56.9902,
      "lon": -3.955408,
      "gridRef": "NN812904",
      "source": "Database of British and Irish Hills v18.4"
    },
    {
      "id": "dobih-3085",
      "dobihId": 3085,
      "name": "Carn Dearg North Top",
      "list": ["corbett-tops", "simms"],
      "region": "Pitlochry to Braemar & Blairgowrie",
      "heightM": 770,
      "heightFt": 2526,
      "lat": 56.839447,
      "lon": -3.581234,
      "gridRef": "NO036731",
      "source": "Database of British and Irish Hills v18.4"
    },
    {
      "id": "dobih-3179",
      "dobihId": 3179,
      "name": "Carn Dearg North Top",
      "list": ["corbett-tops", "simms"],
      "region": "Loch Lochy to Loch Laggan",
      "heightM": 763.9,
      "heightFt": 2506,
      "lat": 56.969989,
      "lon": -4.715365,
      "gridRef": "NN350898",
      "source": "Database of British and Irish Hills v18.4"
    },
    {
      "id": "dobih-3130",
      "dobihId": 3130,
      "name": "Carn Donnachaidh Beag",
      "list": ["corbett-tops", "simms"],
      "region": "Glen Albyn and the Monadh Liath",
      "heightM": 871.7,
      "heightFt": 2860,
      "lat": 57.103939,
      "lon": -4.334455,
      "gridRef": "NH586038",
      "source": "Database of British and Irish Hills v18.4"
    },
    {
      "id": "dobih-3104",
      "dobihId": 3104,
      "name": "Carn Dubh",
      "list": ["corbett-tops", "simms"],
      "region": "Braemar to Montrose",
      "heightM": 822,
      "heightFt": 2697,
      "lat": 56.921248,
      "lon": -3.378444,
      "gridRef": "NO161819",
      "source": "Database of British and Irish Hills v18.4"
    },
    {
      "id": "dobih-3169",
      "dobihId": 3169,
      "name": "Carn Dubh",
      "list": ["corbett-tops", "simms"],
      "region": "Glen Albyn and the Monadh Liath",
      "heightM": 766.1,
      "heightFt": 2513,
      "lat": 57.142594,
      "lon": -4.47158,
      "gridRef": "NH505084",
      "source": "Database of British and Irish Hills v18.4"
    },
    {
      "id": "dobih-641",
      "dobihId": 641,
      "name": "Carn Easgann Bana",
      "list": ["corbett-tops", "humps", "simms"],
      "region": "Glen Albyn and the Monadh Liath",
      "heightM": 779.9,
      "heightFt": 2559,
      "lat": 57.122806,
      "lon": -4.503702,
      "gridRef": "NH485063",
      "source": "Database of British and Irish Hills v18.4"
    },
    {
      "id": "dobih-3221",
      "dobihId": 3221,
      "name": "Carn Eiteige",
      "list": ["corbett-tops", "simms"],
      "region": "Kyle of Lochalsh to Garve",
      "heightM": 882.4,
      "heightFt": 2895,
      "lat": 57.443248,
      "lon": -4.984403,
      "gridRef": "NH209431",
      "source": "Database of British and Irish Hills v18.4"
    },
    {
      "id": "dobih-3172",
      "dobihId": 3172,
      "name": "Carn Fraoich",
      "list": ["corbett-tops", "simms"],
      "region": "Glen Albyn and the Monadh Liath",
      "heightM": 765.4,
      "heightFt": 2511,
      "lat": 57.07953,
      "lon": -4.384177,
      "gridRef": "NH555012",
      "source": "Database of British and Irish Hills v18.4"
    },
    {
      "id": "dobih-3084",
      "dobihId": 3084,
      "name": "Carn Geal",
      "list": ["corbett-tops", "simms"],
      "region": "Pitlochry to Braemar & Blairgowrie",
      "heightM": 776.4,
      "heightFt": 2547,
      "lat": 56.749623,
      "lon": -3.689484,
      "gridRef": "NN967632",
      "source": "Database of British and Irish Hills v18.4"
    },
    {
      "id": "dobih-3153",
      "dobihId": 3153,
      "name": "Carn Ghriogair",
      "list": ["corbett-tops", "simms"],
      "region": "Glen Albyn and the Monadh Liath",
      "heightM": 806,
      "heightFt": 2644,
      "lat": 57.250463,
      "lon": -4.225827,
      "gridRef": "NH658199",
      "source": "Database of British and Irish Hills v18.4"
    },
    {
      "id": "dobih-3219",
      "dobihId": 3219,
      "name": "Carn Glas Iochdarach",
      "list": ["corbett-tops", "simms"],
      "region": "Glen Affric to Glen Moriston",
      "heightM": 771.4,
      "heightFt": 2531,
      "lat": 57.235341,
      "lon": -5.047137,
      "gridRef": "NH161201",
      "source": "Database of British and Irish Hills v18.4"
    },
    {
      "id": "dobih-3222",
      "dobihId": 3222,
      "name": "Carn Gorm",
      "list": ["corbett-tops", "simms"],
      "region": "Kyle of Lochalsh to Garve",
      "heightM": 873.1,
      "heightFt": 2865,
      "lat": 57.501854,
      "lon": -5.113562,
      "gridRef": "NH135500",
      "source": "Database of British and Irish Hills v18.4"
    },
    {
      "id": "dobih-1070",
      "dobihId": 1070,
      "name": "Carn Gorm-loch",
      "list": ["corbett-tops", "humps", "simms"],
      "region": "Loch Broom to Strath Oykel",
      "heightM": 909,
      "heightFt": 2982,
      "lat": 57.778739,
      "lon": -4.82864,
      "gridRef": "NH318800",
      "source": "Database of British and Irish Hills v18.4"
    },
    {
      "id": "dobih-3149",
      "dobihId": 3149,
      "name": "Carn Icean Duibhe",
      "list": ["corbett-tops", "simms"],
      "region": "Glen Albyn and the Monadh Liath",
      "heightM": 809.8,
      "heightFt": 2657,
      "lat": 57.177037,
      "lon": -4.133904,
      "gridRef": "NH710115",
      "source": "Database of British and Irish Hills v18.4"
    },
    {
      "id": "dobih-3128",
      "dobihId": 3128,
      "name": "Carn Leac",
      "list": ["corbett-tops", "humps", "simms"],
      "region": "Glen Albyn and the Monadh Liath",
      "heightM": 882.8,
      "heightFt": 2896,
      "lat": 57.042919,
      "lon": -4.627977,
      "gridRef": "NN406977",
      "source": "Database of British and Irish Hills v18.4"
    },
    {
      "id": "dobih-595",
      "dobihId": 595,
      "name": "Carn Liath",
      "list": ["corbett-tops", "simms"],
      "region": "Cairngorms",
      "heightM": 861.5,
      "heightFt": 2826,
      "lat": 57.06204,
      "lon": -3.378652,
      "gridRef": "NO164976",
      "source": "Database of British and Irish Hills v18.4"
    },
    {
      "id": "dobih-3077",
      "dobihId": 3077,
      "name": "Carn Liath",
      "list": ["corbett-tops", "simms"],
      "region": "Pitlochry to Braemar & Blairgowrie",
      "heightM": 818,
      "heightFt": 2684,
      "lat": 56.961527,
      "lon": -3.587454,
      "gridRef": "NO035867",
      "source": "Database of British and Irish Hills v18.4"
    },
    {
      "id": "dobih-3316",
      "dobihId": 3316,
      "name": "Carn Liath",
      "list": ["corbett-tops", "simms"],
      "region": "Tomintoul to Banff",
      "heightM": 792,
      "heightFt": 2598,
      "lat": 57.227994,
      "lon": -3.2385,
      "gridRef": "NJ253159",
      "source": "Database of British and Irish Hills v18.4"
    },
    {
      "id": "dobih-3151",
      "dobihId": 3151,
      "name": "Carn Macoul",
      "list": ["corbett-tops", "simms"],
      "region": "Glen Albyn and the Monadh Liath",
      "heightM": 804.4,
      "heightFt": 2639,
      "lat": 57.075159,
      "lon": -4.245295,
      "gridRef": "NH639004",
      "source": "Database of British and Irish Hills v18.4"
    },
    {
      "id": "dobih-3163",
      "dobihId": 3163,
      "name": "Carn Mhic Iamhair",
      "list": ["corbett-tops", "simms"],
      "region": "Glen Albyn and the Monadh Liath",
      "heightM": 781,
      "heightFt": 2562,
      "lat": 57.200698,
      "lon": -4.299683,
      "gridRef": "NH611145",
      "source": "Database of British and Irish Hills v18.4"
    },
    {
      "id": "dobih-3069",
      "dobihId": 3069,
      "name": "Carn Mor",
      "list": ["corbett-tops", "simms"],
      "region": "Pitlochry to Braemar & Blairgowrie",
      "heightM": 874.1,
      "heightFt": 2868,
      "lat": 56.858289,
      "lon": -3.460986,
      "gridRef": "NO110750",
      "source": "Database of British and Irish Hills v18.4"
    },
    {
      "id": "dobih-6233",
      "dobihId": 6233,
      "name": "Carn na Criche",
      "list": ["corbett-tops", "simms"],
      "region": "Glen Albyn and the Monadh Liath",
      "heightM": 876.1,
      "heightFt": 2874,
      "lat": 57.077027,
      "lon": -4.349743,
      "gridRef": "NH576009",
      "source": "Database of British and Irish Hills v18.4"
    },
    {
      "id": "dobih-3075",
      "dobihId": 3075,
      "name": "Carn na Drochaide",
      "list": ["corbett-tops", "simms"],
      "region": "Pitlochry to Braemar & Blairgowrie",
      "heightM": 828.2,
      "heightFt": 2717,
      "lat": 56.957745,
      "lon": -3.440423,
      "gridRef": "NO124860",
      "source": "Database of British and Irish Hills v18.4"
    },
    {
      "id": "dobih-640",
      "dobihId": 640,
      "name": "Carn na Laraiche Maoile",
      "list": ["corbett-tops", "humps", "simms"],
      "region": "Glen Albyn and the Monadh Liath",
      "heightM": 811,
      "heightFt": 2661,
      "lat": 57.170311,
      "lon": -4.342691,
      "gridRef": "NH584112",
      "source": "Database of British and Irish Hills v18.4"
    },
    {
      "id": "dobih-3156",
      "dobihId": 3156,
      "name": "Carn na Laraiche Maoile South Top",
      "list": ["corbett-tops", "simms"],
      "region": "Glen Albyn and the Monadh Liath",
      "heightM": 797.5,
      "heightFt": 2616,
      "lat": 57.15563,
      "lon": -4.35648,
      "gridRef": "NH575096",
      "source": "Database of British and Irish Hills v18.4"
    },
    {
      "id": "dobih-3165",
      "dobihId": 3165,
      "name": "Carn nam Meirleach",
      "list": ["corbett-tops", "simms"],
      "region": "Glen Albyn and the Monadh Liath",
      "heightM": 778.9,
      "heightFt": 2555,
      "lat": 57.186758,
      "lon": -4.16182,
      "gridRef": "NH694127",
      "source": "Database of British and Irish Hills v18.4"
    },
    {
      "id": "dobih-3215",
      "dobihId": 3215,
      "name": "Carn nan Coireachan Cruaidh",
      "list": ["corbett-tops", "simms"],
      "region": "Glen Affric to Glen Moriston",
      "heightM": 872,
      "heightFt": 2861,
      "lat": 57.215791,
      "lon": -5.005764,
      "gridRef": "NH185179",
      "source": "Database of British and Irish Hills v18.4"
    },
    {
      "id": "dobih-3288",
      "dobihId": 3288,
      "name": "Carn nan Conbhairean",
      "list": ["corbett-tops", "simms"],
      "region": "Scourie to Lairg",
      "heightM": 868,
      "heightFt": 2848,
      "lat": 58.122234,
      "lon": -4.845178,
      "gridRef": "NC325183",
      "source": "Database of British and Irish Hills v18.4"
    },
    {
      "id": "dobih-3240",
      "dobihId": 3240,
      "name": "Carn nan Searrach",
      "list": ["corbett-tops", "simms"],
      "region": "Killilan to Inverness",
      "heightM": 856.4,
      "heightFt": 2810,
      "lat": 57.337707,
      "lon": -5.302065,
      "gridRef": "NH013322",
      "source": "Database of British and Irish Hills v18.4"
    },
    {
      "id": "dobih-3154",
      "dobihId": 3154,
      "name": "Carn Odhar",
      "list": ["corbett-tops", "simms"],
      "region": "Glen Albyn and the Monadh Liath",
      "heightM": 801.8,
      "heightFt": 2631,
      "lat": 57.230794,
      "lon": -4.257018,
      "gridRef": "NH638178",
      "source": "Database of British and Irish Hills v18.4"
    },
    {
      "id": "dobih-3125",
      "dobihId": 3125,
      "name": "Carn Odhar na Criche",
      "list": ["corbett-tops", "simms"],
      "region": "Glen Albyn and the Monadh Liath",
      "heightM": 895.8,
      "heightFt": 2939,
      "lat": 57.098847,
      "lon": -4.309071,
      "gridRef": "NH602032",
      "source": "Database of British and Irish Hills v18.4"
    },
    {
      "id": "dobih-3148",
      "dobihId": 3148,
      "name": "Carn Sgulain",
      "list": ["corbett-tops", "simms"],
      "region": "Glen Albyn and the Monadh Liath",
      "heightM": 812,
      "heightFt": 2664,
      "lat": 57.154122,
      "lon": -4.153434,
      "gridRef": "NH698090",
      "source": "Database of British and Irish Hills v18.4"
    },
    {
      "id": "dobih-3124",
      "dobihId": 3124,
      "name": "Carn Tiekeiver",
      "list": ["corbett-tops", "simms"],
      "region": "Cairngorms",
      "heightM": 772.1,
      "heightFt": 2533,
      "lat": 57.103455,
      "lon": -3.361709,
      "gridRef": "NJ176022",
      "source": "Database of British and Irish Hills v18.4"
    },
    {
      "id": "dobih-3094",
      "dobihId": 3094,
      "name": "Cathelle Houses [Lair of Whitestone]",
      "list": ["corbett-tops", "simms"],
      "region": "Braemar to Montrose",
      "heightM": 863.4,
      "heightFt": 2833,
      "lat": 56.873623,
      "lon": -3.129366,
      "gridRef": "NO312763",
      "source": "Database of British and Irish Hills v18.4"
    },
    {
      "id": "dobih-1125",
      "dobihId": 1125,
      "name": "Ceann Garbh",
      "list": ["corbett-tops", "simms"],
      "region": "Durness to Loch Shin",
      "heightM": 902,
      "heightFt": 2959,
      "lat": 58.41913,
      "lon": -4.8902,
      "gridRef": "NC312514",
      "source": "Database of British and Irish Hills v18.4"
    },
    {
      "id": "dobih-2956",
      "dobihId": 2956,
      "name": "Ceann Garbh",
      "list": ["corbett-tops", "simms"],
      "region": "Inveraray to Crianlarich",
      "heightM": 804,
      "heightFt": 2638,
      "lat": 56.341181,
      "lon": -4.878016,
      "gridRef": "NN222202",
      "source": "Database of British and Irish Hills v18.4"
    },
    {
      "id": "dobih-2938",
      "dobihId": 2938,
      "name": "Choinneachain Hill",
      "list": ["corbett-tops", "simms"],
      "region": "Loch Tay to Perth",
      "heightM": 786.2,
      "heightFt": 2579,
      "lat": 56.43755,
      "lon": -3.917365,
      "gridRef": "NN818289",
      "source": "Database of British and Irish Hills v18.4"
    },
    {
      "id": "dobih-3298",
      "dobihId": 3298,
      "name": "Clach Glas",
      "list": ["corbett-tops", "simms"],
      "region": "Minginish and the Cuillin Hills",
      "heightM": 786,
      "heightFt": 2579,
      "lat": 57.223155,
      "lon": -6.086248,
      "gridRef": "NG534221",
      "source": "Database of British and Irish Hills v18.4"
    },
    {
      "id": "dobih-3269",
      "dobihId": 3269,
      "name": "Cnap Coire Loch Tuath",
      "list": ["corbett-tops", "simms"],
      "region": "Loch Broom to Strath Oykel",
      "heightM": 883.8,
      "heightFt": 2900,
      "lat": 57.8015,
      "lon": -4.892102,
      "gridRef": "NH282827",
      "source": "Database of British and Irish Hills v18.4"
    },
    {
      "id": "dobih-3115",
      "dobihId": 3115,
      "name": "Cnapan Mor",
      "list": ["corbett-tops", "simms"],
      "region": "Cairngorms",
      "heightM": 893.1,
      "heightFt": 2930,
      "lat": 56.996632,
      "lon": -3.747879,
      "gridRef": "NN939908",
      "source": "Database of British and Irish Hills v18.4"
    },
    {
      "id": "dobih-3103",
      "dobihId": 3103,
      "name": "Cnapan Nathraichean",
      "list": ["corbett-tops", "simms"],
      "region": "Braemar to Montrose",
      "heightM": 824.6,
      "heightFt": 2705,
      "lat": 56.984453,
      "lon": -3.27954,
      "gridRef": "NO223888",
      "source": "Database of British and Irish Hills v18.4"
    },
    {
      "id": "dobih-3045",
      "dobihId": 3045,
      "name": "Conlach Mhor",
      "list": ["corbett-tops", "simms"],
      "region": "Glen Tromie to Glen Tilt",
      "heightM": 862.7,
      "heightFt": 2830,
      "lat": 56.870051,
      "lon": -3.755389,
      "gridRef": "NN930767",
      "source": "Database of British and Irish Hills v18.4"
    },
    {
      "id": "dobih-632",
      "dobihId": 632,
      "name": "Corrieyairack Hill",
      "list": ["corbett-tops", "humps", "simms"],
      "region": "Glen Albyn and the Monadh Liath",
      "heightM": 892,
      "heightFt": 2927,
      "lat": 57.060453,
      "lon": -4.590882,
      "gridRef": "NN429995",
      "source": "Database of British and Irish Hills v18.4"
    },
    {
      "id": "dobih-3279",
      "dobihId": 3279,
      "name": "Craggan a' Chait",
      "list": ["corbett-tops", "simms"],
      "region": "Loch Broom to Strath Oykel",
      "heightM": 777.7,
      "heightFt": 2552,
      "lat": 57.850428,
      "lon": -4.823424,
      "gridRef": "NH325880",
      "source": "Database of British and Irish Hills v18.4"
    },
    {
      "id": "dobih-3096",
      "dobihId": 3096,
      "name": "Craig Damff [Cairn Damff]",
      "list": ["corbett-tops", "simms"],
      "region": "Braemar to Montrose",
      "heightM": 845.5,
      "heightFt": 2774,
      "lat": 56.884699,
      "lon": -3.235853,
      "gridRef": "NO247777",
      "source": "Database of British and Irish Hills v18.4"
    },
    {
      "id": "dobih-3092",
      "dobihId": 3092,
      "name": "Craig Mellon",
      "list": ["corbett-tops", "humps", "simms"],
      "region": "Braemar to Montrose",
      "heightM": 866.2,
      "heightFt": 2842,
      "lat": 56.881962,
      "lon": -3.211688,
      "gridRef": "NO262773",
      "source": "Database of British and Irish Hills v18.4"
    },
    {
      "id": "dobih-1831",
      "dobihId": 1831,
      "name": "Cramalt Craig",
      "list": ["donalds", "corbett-tops", "humps", "simms"],
      "region": "Manor Hills",
      "heightM": 830.2,
      "heightFt": 2724,
      "lat": 55.509321,
      "lon": -3.318223,
      "gridRef": "NT168247",
      "source": "Database of British and Irish Hills v18.4"
    },
    {
      "id": "dobih-3177",
      "dobihId": 3177,
      "name": "Creag a' Bhanain",
      "list": ["corbett-tops", "simms"],
      "region": "Loch Lochy to Loch Laggan",
      "heightM": 846.2,
      "heightFt": 2776,
      "lat": 56.984352,
      "lon": -4.581656,
      "gridRef": "NN432910",
      "source": "Database of British and Irish Hills v18.4"
    },
    {
      "id": "dobih-3008",
      "dobihId": 3008,
      "name": "Creag a' Bhealaich",
      "list": ["corbett-tops", "simms"],
      "region": "Glen Etive to Glen Lochy",
      "heightM": 773,
      "heightFt": 2536,
      "lat": 56.590108,
      "lon": -4.887457,
      "gridRef": "NN227479",
      "source": "Database of British and Irish Hills v18.4"
    },
    {
      "id": "dobih-3121",
      "dobihId": 3121,
      "name": "Creag a' Chalamain",
      "list": ["corbett-tops", "simms"],
      "region": "Cairngorms",
      "heightM": 786.3,
      "heightFt": 2580,
      "lat": 57.126915,
      "lon": -3.716595,
      "gridRef": "NH961053",
      "source": "Database of British and Irish Hills v18.4"
    },
    {
      "id": "dobih-2973",
      "dobihId": 2973,
      "name": "Creag a' Chaorainn [Meall Phubuill]",
      "list": ["corbett-tops", "simms"],
      "region": "Loch Rannoch to Glen Lyon",
      "heightM": 796.5,
      "heightFt": 2613,
      "lat": 56.560567,
      "lon": -4.535554,
      "gridRef": "NN442438",
      "source": "Database of British and Irish Hills v18.4"
    },
    {
      "id": "dobih-3268",
      "dobihId": 3268,
      "name": "Creag a' Choire Ghranda",
      "list": ["corbett-tops", "simms"],
      "region": "Loch Broom to Strath Oykel",
      "heightM": 885.9,
      "heightFt": 2906,
      "lat": 57.775557,
      "lon": -4.915898,
      "gridRef": "NH266799",
      "source": "Database of British and Irish Hills v18.4"
    },
    {
      "id": "dobih-3147",
      "dobihId": 3147,
      "name": "Creag an Dearg Lochain",
      "list": ["corbett-tops", "simms"],
      "region": "Glen Albyn and the Monadh Liath",
      "heightM": 814,
      "heightFt": 2671,
      "lat": 57.077061,
      "lon": -4.411773,
      "gridRef": "NH539010",
      "source": "Database of British and Irish Hills v18.4"
    },
    {
      "id": "dobih-3028",
      "dobihId": 3028,
      "name": "Creag an Dubh-chadha",
      "list": ["corbett-tops", "simms"],
      "region": "Loch Ericht to Glen Tromie & Glen Garry",
      "heightM": 840.5,
      "heightFt": 2758,
      "lat": 56.920347,
      "lon": -4.083245,
      "gridRef": "NN732829",
      "source": "Database of British and Irish Hills v18.4"
    },
    {
      "id": "dobih-1071",
      "dobihId": 1071,
      "name": "Creag an Duine [An Sgurr]",
      "list": ["corbett-tops", "simms"],
      "region": "Loch Broom to Strath Oykel",
      "heightM": 905,
      "heightFt": 2969,
      "lat": 57.848588,
      "lon": -4.871336,
      "gridRef": "NH296879",
      "source": "Database of British and Irish Hills v18.4"
    },
    {
      "id": "dobih-2962",
      "dobihId": 2962,
      "name": "Creag an Fheadain",
      "list": ["corbett-tops", "simms"],
      "region": "Loch Rannoch to Glen Lyon",
      "heightM": 889.2,
      "heightFt": 2917,
      "lat": 56.575056,
      "lon": -4.447134,
      "gridRef": "NN497452",
      "source": "Database of British and Irish Hills v18.4"
    },
    {
      "id": "dobih-3167",
      "dobihId": 3167,
      "name": "Creag an Fhir-eoin",
      "list": ["corbett-tops", "simms"],
      "region": "Glen Albyn and the Monadh Liath",
      "heightM": 775,
      "heightFt": 2543,
      "lat": 57.089727,
      "lon": -4.595054,
      "gridRef": "NH428028",
      "source": "Database of British and Irish Hills v18.4"
    },
    {
      "id": "dobih-3248",
      "dobihId": 3248,
      "name": "Creag an Fhithich",
      "list": ["corbett-tops", "simms"],
      "region": "Loch Torridon to Loch Maree",
      "heightM": 801,
      "heightFt": 2628,
      "lat": 57.640925,
      "lon": -5.58344,
      "gridRef": "NG862668",
      "source": "Database of British and Irish Hills v18.4"
    },
    {
      "id": "dobih-3073",
      "dobihId": 3073,
      "name": "Creag an Fhuathais",
      "list": ["corbett-tops", "simms"],
      "region": "Pitlochry to Braemar & Blairgowrie",
      "heightM": 852.6,
      "heightFt": 2797,
      "lat": 56.930016,
      "lon": -3.480616,
      "gridRef": "NO099830",
      "source": "Database of British and Irish Hills v18.4"
    },
    {
      "id": "dobih-3099",
      "dobihId": 3099,
      "name": "Creag an Loch",
      "list": ["corbett-tops", "simms"],
      "region": "Braemar to Montrose",
      "heightM": 835.5,
      "heightFt": 2741,
      "lat": 56.947521,
      "lon": -3.329255,
      "gridRef": "NO192848",
      "source": "Database of British and Irish Hills v18.4"
    },
    {
      "id": "dobih-2981",
      "dobihId": 2981,
      "name": "Creag an Lochain",
      "list": ["corbett-tops", "simms"],
      "region": "Glen Lyon to Glen Dochart & Loch Tay",
      "heightM": 840.2,
      "heightFt": 2757,
      "lat": 56.5332,
      "lon": -4.293261,
      "gridRef": "NN590402",
      "source": "Database of British and Irish Hills v18.4"
    },
    {
      "id": "dobih-3287",
      "dobihId": 3287,
      "name": "Creag an Lochain [A'Chaoirnichain]",
      "list": ["corbett-tops", "humps", "simms"],
      "region": "Altnaharra to Dornoch",
      "heightM": 807.3,
      "heightFt": 2649,
      "lat": 58.218014,
      "lon": -4.426071,
      "gridRef": "NC575280",
      "source": "Database of British and Irish Hills v18.4"
    },
    {
      "id": "dobih-3271",
      "dobihId": 3271,
      "name": "Creag an Lochain Sgeirich [A'Chaoirnichain Sgeirich]",
      "list": ["corbett-tops", "simms"],
      "region": "Loch Broom to Strath Oykel",
      "heightM": 873,
      "heightFt": 2864,
      "lat": 57.821799,
      "lon": -4.936814,
      "gridRef": "NH256851",
      "source": "Database of British and Irish Hills v18.4"
    },
    {
      "id": "dobih-2983",
      "dobihId": 2983,
      "name": "Creag an Tulabhain",
      "list": ["corbett-tops", "simms"],
      "region": "Glen Lyon to Glen Dochart & Loch Tay",
      "heightM": 809,
      "heightFt": 2654,
      "lat": 56.543785,
      "lon": -4.40036,
      "gridRef": "NN525416",
      "source": "Database of British and Irish Hills v18.4"
    },
    {
      "id": "dobih-3276",
      "dobihId": 3276,
      "name": "Creag Bac na Faire",
      "list": ["corbett-tops", "simms"],
      "region": "Loch Broom to Strath Oykel",
      "heightM": 809,
      "heightFt": 2654,
      "lat": 57.781389,
      "lon": -4.980404,
      "gridRef": "NH228807",
      "source": "Database of British and Irish Hills v18.4"
    },
    {
      "id": "dobih-3076",
      "dobihId": 3076,
      "name": "Creag Bhreac",
      "list": ["corbett-tops", "simms"],
      "region": "Pitlochry to Braemar & Blairgowrie",
      "heightM": 827,
      "heightFt": 2713,
      "lat": 56.850698,
      "lon": -3.524003,
      "gridRef": "NO071742",
      "source": "Database of British and Irish Hills v18.4"
    },
    {
      "id": "dobih-3236",
      "dobihId": 3236,
      "name": "Creag Coire na Feola",
      "list": ["corbett-tops", "simms"],
      "region": "Kyle of Lochalsh to Garve",
      "heightM": 770,
      "heightFt": 2526,
      "lat": 57.499208,
      "lon": -4.996118,
      "gridRef": "NH205494",
      "source": "Database of British and Irish Hills v18.4"
    },
    {
      "id": "dobih-3117",
      "dobihId": 3117,
      "name": "Creag Dhubh",
      "list": ["corbett-tops", "simms"],
      "region": "Cairngorms",
      "heightM": 848,
      "heightFt": 2782,
      "lat": 57.116635,
      "lon": -3.807471,
      "gridRef": "NH906043",
      "source": "Database of British and Irish Hills v18.4"
    },
    {
      "id": "dobih-3161",
      "dobihId": 3161,
      "name": "Creag Dhubh",
      "list": ["corbett-tops", "humps", "simms"],
      "region": "Glen Albyn and the Monadh Liath",
      "heightM": 787,
      "heightFt": 2582,
      "lat": 57.105399,
      "lon": -4.101134,
      "gridRef": "NH728035",
      "source": "Database of British and Irish Hills v18.4"
    },
    {
      "id": "dobih-3225",
      "dobihId": 3225,
      "name": "Creag Dhubh Mhor",
      "list": ["corbett-tops", "simms"],
      "region": "Kyle of Lochalsh to Garve",
      "heightM": 853,
      "heightFt": 2799,
      "lat": 57.478064,
      "lon": -5.104344,
      "gridRef": "NH139473",
      "source": "Database of British and Irish Hills v18.4"
    },
    {
      "id": "dobih-3074",
      "dobihId": 3074,
      "name": "Creag Easgaidh",
      "list": ["corbett-tops", "simms"],
      "region": "Pitlochry to Braemar & Blairgowrie",
      "heightM": 841.5,
      "heightFt": 2761,
      "lat": 56.874726,
      "lon": -3.516448,
      "gridRef": "NO076769",
      "source": "Database of British and Irish Hills v18.4"
    },
    {
      "id": "dobih-3239",
      "dobihId": 3239,
      "name": "Creag Feusag",
      "list": ["corbett-tops", "simms"],
      "region": "Killilan to Inverness",
      "heightM": 862.6,
      "heightFt": 2830,
      "lat": 57.361582,
      "lon": -4.96436,
      "gridRef": "NH217340",
      "source": "Database of British and Irish Hills v18.4"
    },
    {
      "id": "dobih-3212",
      "dobihId": 3212,
      "name": "Creag Ghlas",
      "list": ["corbett-tops", "simms"],
      "region": "Loch Duich to Cannich",
      "heightM": 855.6,
      "heightFt": 2807,
      "lat": 57.286003,
      "lon": -5.241968,
      "gridRef": "NH047263",
      "source": "Database of British and Irish Hills v18.4"
    },
    {
      "id": "dobih-3278",
      "dobihId": 3278,
      "name": "Creag Iobhair",
      "list": ["corbett-tops", "simms"],
      "region": "Loch Broom to Strath Oykel",
      "heightM": 794,
      "heightFt": 2605,
      "lat": 57.841254,
      "lon": -4.85545,
      "gridRef": "NH305871",
      "source": "Database of British and Irish Hills v18.4"
    },
    {
      "id": "dobih-3107",
      "dobihId": 3107,
      "name": "Creag Loisgte",
      "list": ["corbett-tops", "humps", "simms"],
      "region": "Braemar to Montrose",
      "heightM": 795,
      "heightFt": 2608,
      "lat": 56.965781,
      "lon": -3.355728,
      "gridRef": "NO176868",
      "source": "Database of British and Irish Hills v18.4"
    },
    {
      "id": "dobih-2969",
      "dobihId": 2969,
      "name": "Creag Mhor",
      "list": ["corbett-tops", "simms"],
      "region": "Loch Rannoch to Glen Lyon",
      "heightM": 820.9,
      "heightFt": 2693,
      "lat": 56.615029,
      "lon": -4.099106,
      "gridRef": "NN712489",
      "source": "Database of British and Irish Hills v18.4"
    },
    {
      "id": "dobih-3173",
      "dobihId": 3173,
      "name": "Creag Mhor",
      "list": ["corbett-tops", "humps", "simms"],
      "region": "Glen Albyn and the Monadh Liath",
      "heightM": 766.2,
      "heightFt": 2514,
      "lat": 57.041738,
      "lon": -4.499134,
      "gridRef": "NN484972",
      "source": "Database of British and Irish Hills v18.4"
    },
    {
      "id": "dobih-167",
      "dobihId": 167,
      "name": "Creag na Caillich",
      "list": ["corbett-tops", "simms"],
      "region": "Glen Lyon to Glen Dochart & Loch Tay",
      "heightM": 914.3,
      "heightFt": 3000,
      "lat": 56.509326,
      "lon": -4.336889,
      "gridRef": "NN562377",
      "source": "Database of British and Irish Hills v18.4"
    },
    {
      "id": "dobih-851",
      "dobihId": 851,
      "name": "Creag na h-Eige [Frith an Achaidh Mhoir]",
      "list": ["corbett-tops", "simms"],
      "region": "Loch Duich to Cannich",
      "heightM": 911.8,
      "heightFt": 2991,
      "lat": 57.306794,
      "lon": -5.088575,
      "gridRef": "NH140282",
      "source": "Database of British and Irish Hills v18.4"
    },
    {
      "id": "dobih-3144",
      "dobihId": 3144,
      "name": "Creag na h-Iolaire",
      "list": ["corbett-tops", "simms"],
      "region": "Glen Albyn and the Monadh Liath",
      "heightM": 814.3,
      "heightFt": 2672,
      "lat": 57.089509,
      "lon": -4.193112,
      "gridRef": "NH672019",
      "source": "Database of British and Irish Hills v18.4"
    },
    {
      "id": "dobih-5721",
      "dobihId": 5721,
      "name": "Creag na h-Iolaire",
      "list": ["corbett-tops", "simms"],
      "region": "Loch Lomond to Strathyre",
      "heightM": 834.9,
      "heightFt": 2739,
      "lat": 56.304714,
      "lon": -4.543518,
      "gridRef": "NN427153",
      "source": "Database of British and Irish Hills v18.4"
    },
    {
      "id": "dobih-2987",
      "dobihId": 2987,
      "name": "Creag nam Bodach",
      "list": ["corbett-tops", "humps", "simms"],
      "region": "Glen Lyon to Glen Dochart & Loch Tay",
      "heightM": 778.8,
      "heightFt": 2555,
      "lat": 56.505341,
      "lon": -4.528338,
      "gridRef": "NN444376",
      "source": "Database of British and Irish Hills v18.4"
    },
    {
      "id": "dobih-3290",
      "dobihId": 3290,
      "name": "Creag nan Calman",
      "list": ["corbett-tops", "simms"],
      "region": "Lochinver to Ullapool",
      "heightM": 829.2,
      "heightFt": 2720,
      "lat": 58.052964,
      "lon": -5.120845,
      "gridRef": "NC159113",
      "source": "Database of British and Irish Hills v18.4"
    },
    {
      "id": "dobih-2934",
      "dobihId": 2934,
      "name": "Creag nan Eun",
      "list": ["corbett-tops", "humps", "simms"],
      "region": "Loch Tay to Perth",
      "heightM": 853.7,
      "heightFt": 2801,
      "lat": 56.461473,
      "lon": -4.067267,
      "gridRef": "NN727318",
      "source": "Database of British and Irish Hills v18.4"
    },
    {
      "id": "dobih-3108",
      "dobihId": 3108,
      "name": "Creag nan Leachda",
      "list": ["corbett-tops", "humps", "simms"],
      "region": "Braemar to Montrose",
      "heightM": 784,
      "heightFt": 2572,
      "lat": 56.981919,
      "lon": -3.351345,
      "gridRef": "NO179886",
      "source": "Database of British and Irish Hills v18.4"
    },
    {
      "id": "dobih-2976",
      "dobihId": 2976,
      "name": "Creag Riabhach",
      "list": ["corbett-tops", "simms"],
      "region": "Loch Rannoch to Glen Lyon",
      "heightM": 779.8,
      "heightFt": 2558,
      "lat": 56.5924,
      "lon": -4.535112,
      "gridRef": "NN444473",
      "source": "Database of British and Irish Hills v18.4"
    },
    {
      "id": "dobih-3275",
      "dobihId": 3275,
      "name": "Creag Riabhach",
      "list": ["corbett-tops", "simms"],
      "region": "Loch Broom to Strath Oykel",
      "heightM": 832.3,
      "heightFt": 2731,
      "lat": 57.857191,
      "lon": -4.764862,
      "gridRef": "NH360886",
      "source": "Database of British and Irish Hills v18.4"
    },
    {
      "id": "dobih-2958",
      "dobihId": 2958,
      "name": "Creag Tharsuinn",
      "list": ["corbett-tops", "simms"],
      "region": "Inveraray to Crianlarich",
      "heightM": 783.5,
      "heightFt": 2571,
      "lat": 56.227889,
      "lon": -4.779293,
      "gridRef": "NN278074",
      "source": "Database of British and Irish Hills v18.4"
    },
    {
      "id": "dobih-3252",
      "dobihId": 3252,
      "name": "Creagan Dubh Toll nam Biast",
      "list": ["corbett-tops", "simms"],
      "region": "Applecross to Achnasheen",
      "heightM": 867.6,
      "heightFt": 2846,
      "lat": 57.5005,
      "lon": -5.52959,
      "gridRef": "NG886510",
      "source": "Database of British and Irish Hills v18.4"
    },
    {
      "id": "dobih-3036",
      "dobihId": 3036,
      "name": "Creagan Mor",
      "list": ["corbett-tops", "simms"],
      "region": "Loch Ericht to Glen Tromie & Glen Garry",
      "heightM": 773.2,
      "heightFt": 2537,
      "lat": 56.895267,
      "lon": -4.274406,
      "gridRef": "NN615805",
      "source": "Database of British and Irish Hills v18.4"
    },
    {
      "id": "dobih-3208",
      "dobihId": 3208,
      "name": "Doire Tana",
      "list": ["corbett-tops", "humps", "simms"],
      "region": "Loch Duich to Cannich",
      "heightM": 893,
      "heightFt": 2930,
      "lat": 57.309208,
      "lon": -4.959045,
      "gridRef": "NH218281",
      "source": "Database of British and Irish Hills v18.4"
    },
    {
      "id": "dobih-1833",
      "dobihId": 1833,
      "name": "Dollar Law",
      "list": ["donalds", "corbett-tops", "simms"],
      "region": "Manor Hills",
      "heightM": 817,
      "heightFt": 2680,
      "lat": 55.537287,
      "lon": -3.303905,
      "gridRef": "NT178278",
      "source": "Database of British and Irish Hills v18.4"
    },
    {
      "id": "dobih-3192",
      "dobihId": 3192,
      "name": "Druim a' Chuirn",
      "list": ["corbett-tops", "simms"],
      "region": "Knoydart to Glen Kingie",
      "heightM": 822,
      "heightFt": 2697,
      "lat": 57.001839,
      "lon": -5.360111,
      "gridRef": "NM960950",
      "source": "Database of British and Irish Hills v18.4"
    },
    {
      "id": "dobih-717",
      "dobihId": 717,
      "name": "Druim Fiaclach",
      "list": ["corbett-tops", "humps", "simms"],
      "region": "Moidart and Ardnamurchan",
      "heightM": 869.8,
      "heightFt": 2854,
      "lat": 56.851343,
      "lon": -5.623733,
      "gridRef": "NM791791",
      "source": "Database of British and Irish Hills v18.4"
    },
    {
      "id": "dobih-19199",
      "dobihId": 19199,
      "name": "Druim Fiaclach East Top",
      "list": ["corbett-tops", "simms"],
      "region": "Moidart and Ardnamurchan",
      "heightM": 829.3,
      "heightFt": 2721,
      "lat": 56.850114,
      "lon": -5.61093,
      "gridRef": "NM799790",
      "source": "Database of British and Irish Hills v18.4"
    },
    {
      "id": "dobih-1353",
      "dobihId": 1353,
      "name": "Druim Garbh",
      "list": ["corbett-tops", "humps", "simms"],
      "region": "Sunart and Ardgour",
      "heightM": 803.9,
      "heightFt": 2637,
      "lat": 56.758532,
      "lon": -5.466664,
      "gridRef": "NM881683",
      "source": "Database of British and Irish Hills v18.4"
    },
    {
      "id": "dobih-3189",
      "dobihId": 3189,
      "name": "Druim Leac a' Shith",
      "list": ["corbett-tops", "humps", "simms"],
      "region": "Knoydart to Glen Kingie",
      "heightM": 838.8,
      "heightFt": 2752,
      "lat": 57.03549,
      "lon": -5.515115,
      "gridRef": "NM868993",
      "source": "Database of British and Irish Hills v18.4"
    },
    {
      "id": "dobih-3100",
      "dobihId": 3100,
      "name": "Easter Balloch",
      "list": ["corbett-tops", "humps", "simms"],
      "region": "Braemar to Montrose",
      "heightM": 833.9,
      "heightFt": 2736,
      "lat": 56.907718,
      "lon": -3.072212,
      "gridRef": "NO348801",
      "source": "Database of British and Irish Hills v18.4"
    },
    {
      "id": "dobih-3041",
      "dobihId": 3041,
      "name": "Elrig 'ic an Toisich",
      "list": ["corbett-tops", "simms"],
      "region": "Glen Tromie to Glen Tilt",
      "heightM": 887,
      "heightFt": 2910,
      "lat": 56.88696,
      "lon": -3.863404,
      "gridRef": "NN865788",
      "source": "Database of British and Irish Hills v18.4"
    },
    {
      "id": "dobih-3265",
      "dobihId": 3265,
      "name": "Faire nam Fiadh",
      "list": ["corbett-tops", "simms"],
      "region": "The Fannaichs",
      "heightM": 798.9,
      "heightFt": 2621,
      "lat": 57.658124,
      "lon": -4.933141,
      "gridRef": "NH251669",
      "source": "Database of British and Irish Hills v18.4"
    },
    {
      "id": "dobih-711",
      "dobihId": 711,
      "name": "Faochag",
      "list": ["corbett-tops", "simms"],
      "region": "Glen Shiel to Loch Hourn and Loch Quoich",
      "heightM": 909,
      "heightFt": 2982,
      "lat": 57.156112,
      "lon": -5.383433,
      "gridRef": "NG954123",
      "source": "Database of British and Irish Hills v18.4"
    },
    {
      "id": "dobih-3209",
      "dobihId": 3209,
      "name": "Faradh Nighean Fhearchair",
      "list": ["corbett-tops", "simms"],
      "region": "Loch Duich to Cannich",
      "heightM": 881.2,
      "heightFt": 2891,
      "lat": 57.234175,
      "lon": -5.323315,
      "gridRef": "NG995208",
      "source": "Database of British and Irish Hills v18.4"
    },
    {
      "id": "dobih-3106",
      "dobihId": 3106,
      "name": "Ferrowie",
      "list": ["corbett-tops", "simms"],
      "region": "Braemar to Montrose",
      "heightM": 801.4,
      "heightFt": 2629,
      "lat": 56.901408,
      "lon": -3.145507,
      "gridRef": "NO303794",
      "source": "Database of British and Irish Hills v18.4"
    },
    {
      "id": "dobih-490",
      "dobihId": 490,
      "name": "Finalty Hill",
      "list": ["corbett-tops", "simms"],
      "region": "Braemar to Montrose",
      "heightM": 905,
      "heightFt": 2969,
      "lat": 56.860427,
      "lon": -3.293131,
      "gridRef": "NO212750",
      "source": "Database of British and Irish Hills v18.4"
    },
    {
      "id": "dobih-3207",
      "dobihId": 3207,
      "name": "Fraoch-bheinn",
      "list": ["corbett-tops", "simms"],
      "region": "Mallaig to Fort William",
      "heightM": 790,
      "heightFt": 2592,
      "lat": 56.896649,
      "lon": -5.459565,
      "gridRef": "NM894837",
      "source": "Database of British and Irish Hills v18.4"
    },
    {
      "id": "dobih-3131",
      "dobihId": 3131,
      "name": "Gairbeinn North Top",
      "list": ["corbett-tops", "simms"],
      "region": "Glen Albyn and the Monadh Liath",
      "heightM": 868.4,
      "heightFt": 2849,
      "lat": 57.067951,
      "lon": -4.524719,
      "gridRef": "NH470002",
      "source": "Database of British and Irish Hills v18.4"
    },
    {
      "id": "dobih-129",
      "dobihId": 129,
      "name": "Garbh Mheall",
      "list": ["corbett-tops", "simms"],
      "region": "Loch Rannoch to Glen Lyon",
      "heightM": 913.1,
      "heightFt": 2996,
      "lat": 56.622941,
      "lon": -4.445701,
      "gridRef": "NN500505",
      "source": "Database of British and Irish Hills v18.4"
    },
    {
      "id": "dobih-3017",
      "dobihId": 3017,
      "name": "Garbh-bheinn",
      "list": ["corbett-tops", "simms"],
      "region": "Loch Treig to Loch Ericht",
      "heightM": 857,
      "heightFt": 2812,
      "lat": 56.803509,
      "lon": -4.690155,
      "gridRef": "NN358712",
      "source": "Database of British and Irish Hills v18.4"
    },
    {
      "id": "dobih-3226",
      "dobihId": 3226,
      "name": "Garbh-charn",
      "list": ["corbett-tops", "humps", "simms"],
      "region": "Kyle of Lochalsh to Garve",
      "heightM": 854,
      "heightFt": 2802,
      "lat": 57.427864,
      "lon": -4.844856,
      "gridRef": "NH292410",
      "source": "Database of British and Irish Hills v18.4"
    },
    {
      "id": "dobih-3293",
      "dobihId": 3293,
      "name": "Gars-bheinn",
      "list": ["corbett-tops", "humps", "simms"],
      "region": "Minginish and the Cuillin Hills",
      "heightM": 894.2,
      "heightFt": 2934,
      "lat": 57.18923,
      "lon": -6.192161,
      "gridRef": "NG468187",
      "source": "Database of British and Irish Hills v18.4"
    },
    {
      "id": "dobih-2974",
      "dobihId": 2974,
      "name": "Geal Charn",
      "list": ["corbett-tops", "humps", "simms"],
      "region": "Loch Rannoch to Glen Lyon",
      "heightM": 793.5,
      "heightFt": 2603,
      "lat": 56.663348,
      "lon": -4.152772,
      "gridRef": "NN681544",
      "source": "Database of British and Irish Hills v18.4"
    },
    {
      "id": "dobih-3068",
      "dobihId": 3068,
      "name": "Geal Charn",
      "list": ["corbett-tops", "simms"],
      "region": "Pitlochry to Braemar & Blairgowrie",
      "heightM": 878,
      "heightFt": 2881,
      "lat": 56.931011,
      "lon": -3.591958,
      "gridRef": "NO032833",
      "source": "Database of British and Irish Hills v18.4"
    },
    {
      "id": "dobih-3126",
      "dobihId": 3126,
      "name": "Geal Charn",
      "list": ["corbett-tops", "simms"],
      "region": "Glen Albyn and the Monadh Liath",
      "heightM": 889.9,
      "heightFt": 2920,
      "lat": 57.099788,
      "lon": -4.198755,
      "gridRef": "NH668031",
      "source": "Database of British and Irish Hills v18.4"
    },
    {
      "id": "dobih-3129",
      "dobihId": 3129,
      "name": "Geal Charn",
      "list": ["corbett-tops", "simms"],
      "region": "Glen Albyn and the Monadh Liath",
      "heightM": 875.6,
      "heightFt": 2873,
      "lat": 57.054308,
      "lon": -4.566325,
      "gridRef": "NN444988",
      "source": "Database of British and Irish Hills v18.4"
    },
    {
      "id": "dobih-3171",
      "dobihId": 3171,
      "name": "Geal Charn",
      "list": ["corbett-tops", "simms"],
      "region": "Glen Albyn and the Monadh Liath",
      "heightM": 766,
      "heightFt": 2513,
      "lat": 57.116685,
      "lon": -4.144636,
      "gridRef": "NH702049",
      "source": "Database of British and Irish Hills v18.4"
    },
    {
      "id": "dobih-3080",
      "dobihId": 3080,
      "name": "Geal Charn NE Top",
      "list": ["corbett-tops", "simms"],
      "region": "Pitlochry to Braemar & Blairgowrie",
      "heightM": 797,
      "heightFt": 2615,
      "lat": 56.955255,
      "lon": -3.572568,
      "gridRef": "NO044859",
      "source": "Database of British and Irish Hills v18.4"
    },
    {
      "id": "dobih-3159",
      "dobihId": 3159,
      "name": "Glas Charn",
      "list": ["corbett-tops", "simms"],
      "region": "Glen Albyn and the Monadh Liath",
      "heightM": 790.4,
      "heightFt": 2593,
      "lat": 57.041378,
      "lon": -4.714507,
      "gridRef": "NN354977",
      "source": "Database of British and Irish Hills v18.4"
    },
    {
      "id": "dobih-3030",
      "dobihId": 3030,
      "name": "Glas Meall a' Chumhainn",
      "list": ["corbett-tops", "humps", "simms"],
      "region": "Loch Ericht to Glen Tromie & Glen Garry",
      "heightM": 827,
      "heightFt": 2713,
      "lat": 56.796707,
      "lon": -4.33884,
      "gridRef": "NN572696",
      "source": "Database of British and Irish Hills v18.4"
    },
    {
      "id": "dobih-3025",
      "dobihId": 3025,
      "name": "Glas Mheall Beag",
      "list": ["corbett-tops", "simms"],
      "region": "Loch Ericht to Glen Tromie & Glen Garry",
      "heightM": 881.5,
      "heightFt": 2892,
      "lat": 56.853886,
      "lon": -4.17704,
      "gridRef": "NN673757",
      "source": "Database of British and Irish Hills v18.4"
    },
    {
      "id": "dobih-398",
      "dobihId": 398,
      "name": "Glas Mheall Mor",
      "list": ["corbett-tops", "humps", "simms"],
      "region": "Loch Ericht to Glen Tromie & Glen Garry",
      "heightM": 829.3,
      "heightFt": 2721,
      "lat": 56.775061,
      "lon": -4.352552,
      "gridRef": "NN563673",
      "source": "Database of British and Irish Hills v18.4"
    },
    {
      "id": "dobih-3072",
      "dobihId": 3072,
      "name": "Glas Tulaichean North Top",
      "list": ["corbett-tops", "simms"],
      "region": "Pitlochry to Braemar & Blairgowrie",
      "heightM": 858.5,
      "heightFt": 2817,
      "lat": 56.879979,
      "lon": -3.542393,
      "gridRef": "NO061775",
      "source": "Database of British and Irish Hills v18.4"
    },
    {
      "id": "dobih-3046",
      "dobihId": 3046,
      "name": "Glas-leathad Feshie",
      "list": ["corbett-tops", "simms"],
      "region": "Glen Tromie to Glen Tilt",
      "heightM": 858.6,
      "heightFt": 2817,
      "lat": 56.931758,
      "lon": -3.900611,
      "gridRef": "NN844838",
      "source": "Database of British and Irish Hills v18.4"
    },
    {
      "id": "dobih-3050",
      "dobihId": 3050,
      "name": "Glas-leathad Lorgaidh",
      "list": ["corbett-tops", "simms"],
      "region": "Glen Tromie to Glen Tilt",
      "heightM": 841.3,
      "heightFt": 2760,
      "lat": 56.960626,
      "lon": -3.918463,
      "gridRef": "NN834871",
      "source": "Database of British and Irish Hills v18.4"
    },
    {
      "id": "dobih-3091",
      "dobihId": 3091,
      "name": "Green Hill",
      "list": ["corbett-tops", "simms"],
      "region": "Braemar to Montrose",
      "heightM": 867.7,
      "heightFt": 2847,
      "lat": 56.867606,
      "lon": -3.069899,
      "gridRef": "NO348756",
      "source": "Database of British and Irish Hills v18.4"
    },
    {
      "id": "dobih-2972",
      "dobihId": 2972,
      "name": "Guala Mhor",
      "list": ["corbett-tops", "simms"],
      "region": "Loch Rannoch to Glen Lyon",
      "heightM": 798,
      "heightFt": 2618,
      "lat": 56.576636,
      "lon": -4.599516,
      "gridRef": "NN404457",
      "source": "Database of British and Irish Hills v18.4"
    },
    {
      "id": "dobih-493",
      "dobihId": 493,
      "name": "Hill of Strone",
      "list": ["corbett-tops", "humps", "simms"],
      "region": "Braemar to Montrose",
      "heightM": 847.5,
      "heightFt": 2781,
      "lat": 56.842235,
      "lon": -3.169044,
      "gridRef": "NO287729",
      "source": "Database of British and Irish Hills v18.4"
    },
    {
      "id": "dobih-3166",
      "dobihId": 3166,
      "name": "Ileach Bhan",
      "list": ["corbett-tops", "simms"],
      "region": "Glen Albyn and the Monadh Liath",
      "heightM": 773.9,
      "heightFt": 2539,
      "lat": 57.162752,
      "lon": -4.249512,
      "gridRef": "NH640102",
      "source": "Database of British and Irish Hills v18.4"
    },
    {
      "id": "dobih-3270",
      "dobihId": 3270,
      "name": "Iorguill",
      "list": ["corbett-tops", "simms"],
      "region": "Loch Broom to Strath Oykel",
      "heightM": 874,
      "heightFt": 2867,
      "lat": 57.78933,
      "lon": -4.964466,
      "gridRef": "NH238816",
      "source": "Database of British and Irish Hills v18.4"
    },
    {
      "id": "dobih-1691",
      "dobihId": 1691,
      "name": "Kirriereoch Hill",
      "list": ["donalds", "marilyns", "corbett-tops", "humps", "simms"],
      "region": "Galloway Hills",
      "heightM": 786.8,
      "heightFt": 2581,
      "lat": 55.151655,
      "lon": -4.479646,
      "gridRef": "NX420869",
      "source": "Database of British and Irish Hills v18.4"
    },
    {
      "id": "dobih-1261",
      "dobihId": 1261,
      "name": "Knight's Peak",
      "list": ["corbett-tops", "simms"],
      "region": "Minginish and the Cuillin Hills",
      "heightM": 914.24,
      "heightFt": 2999,
      "lat": 57.249394,
      "lon": -6.192914,
      "gridRef": "NG471254",
      "source": "Database of British and Irish Hills v18.4"
    },
    {
      "id": "dobih-3186",
      "dobihId": 3186,
      "name": "Ladhar Bheinn Far South Top",
      "list": ["corbett-tops", "simms"],
      "region": "Knoydart to Glen Kingie",
      "heightM": 857,
      "heightFt": 2812,
      "lat": 57.069619,
      "lon": -5.577565,
      "gridRef": "NG832033",
      "source": "Database of British and Irish Hills v18.4"
    },
    {
      "id": "dobih-3053",
      "dobihId": 3053,
      "name": "Leac an Taobhain",
      "list": ["corbett-tops", "simms"],
      "region": "Glen Tromie to Glen Tilt",
      "heightM": 832,
      "heightFt": 2730,
      "lat": 56.941063,
      "lon": -3.920877,
      "gridRef": "NN832849",
      "source": "Database of British and Irish Hills v18.4"
    },
    {
      "id": "dobih-3157",
      "dobihId": 3157,
      "name": "Leacann Chorrach",
      "list": ["corbett-tops", "simms"],
      "region": "Glen Albyn and the Monadh Liath",
      "heightM": 795,
      "heightFt": 2608,
      "lat": 57.063796,
      "lon": -4.311759,
      "gridRef": "NN599993",
      "source": "Database of British and Irish Hills v18.4"
    },
    {
      "id": "dobih-373",
      "dobihId": 373,
      "name": "Leacann na Sguabaich",
      "list": ["corbett-tops", "simms"],
      "region": "Loch Treig to Loch Ericht",
      "heightM": 899.9,
      "heightFt": 2952,
      "lat": 56.907383,
      "lon": -4.323139,
      "gridRef": "NN586819",
      "source": "Database of British and Irish Hills v18.4"
    },
    {
      "id": "dobih-3065",
      "dobihId": 3065,
      "name": "Leachdann Feith Seasgachain South Top",
      "list": ["corbett-tops", "simms"],
      "region": "Glen Tromie to Glen Tilt",
      "heightM": 772,
      "heightFt": 2533,
      "lat": 56.905268,
      "lon": -3.775419,
      "gridRef": "NN919807",
      "source": "Database of British and Irish Hills v18.4"
    },
    {
      "id": "dobih-3135",
      "dobihId": 3135,
      "name": "Leathad Gaothach",
      "list": ["corbett-tops", "simms"],
      "region": "Glen Albyn and the Monadh Liath",
      "heightM": 844.1,
      "heightFt": 2769,
      "lat": 57.06169,
      "lon": -4.435633,
      "gridRef": "NN523993",
      "source": "Database of British and Irish Hills v18.4"
    },
    {
      "id": "dobih-3063",
      "dobihId": 3063,
      "name": "Leathad na Lice",
      "list": ["corbett-tops", "simms"],
      "region": "Glen Tromie to Glen Tilt",
      "heightM": 781.4,
      "heightFt": 2564,
      "lat": 56.901367,
      "lon": -4.034843,
      "gridRef": "NN761807",
      "source": "Database of British and Irish Hills v18.4"
    },