{
  "metadata": {
    "source": "Database of British and Irish Hills v18.4",
    "license": "CC BY 4.0",
    "sourceUrl": "https://www.hill-bagging.co.uk/dobih",
    "downloadedFrom": "https://www.hill-bagging.co.uk/dobih-downloads/hillcsv.zip",
    "changes": "Trimmed to Marilyns (UK and Isle of Man only, Republic of Ireland excluded) and reformatted from DoBIH v18.4",
    "generatedAt": "2026-07-11",
    "count": 1621
  },
  "peaks": [
    {
      "id": "dobih-1328",
      "dobihId": 1328,
      "name": "'S Airde Beinn",
      "list": ["marilyns"],
      "region": "Mull and Nearby Islands",
      "heightM": 295,
      "heightFt": 968,
      "lat": 56.606383,
      "lon": -6.12277,
      "gridRef": "NM470536",
      "source": "Database of British and Irish Hills v18.4"
    },
    {
      "id": "dobih-1371",
      "dobihId": 1371,
      "name": "A' Bheinn Bhan",
      "list": ["marilyns"],
      "region": "Sunart and Ardgour",
      "heightM": 477,
      "heightFt": 1565,
      "lat": 56.744856,
      "lon": -5.360806,
      "gridRef": "NM945665",
      "source": "Database of British and Irish Hills v18.4"
    },
    {
      "id": "dobih-1043",
      "dobihId": 1043,
      "name": "A' Chailleach",
      "list": ["munros", "marilyns"],
      "region": "The Fannaichs",
      "heightM": 998.6,
      "heightFt": 3276,
      "lat": 57.693773,
      "lon": -5.128713,
      "gridRef": "NH136714",
      "source": "Database of British and Irish Hills v18.4"
    },
    {
      "id": "dobih-416",
      "dobihId": 416,
      "name": "A' Chaoirnich [Maol Creag an Loch]",
      "list": ["corbetts", "marilyns"],
      "region": "Glen Tromie to Glen Tilt",
      "heightM": 875.7,
      "heightFt": 2873,
      "lat": 56.90042,
      "lon": -4.078194,
      "gridRef": "NN735807",
      "source": "Database of British and Irish Hills v18.4"
    },
    {
      "id": "dobih-862",
      "dobihId": 862,
      "name": "A' Chraileag [A' Chralaig]",
      "list": ["munros", "marilyns"],
      "region": "Glen Affric to Glen Moriston",
      "heightM": 1120,
      "heightFt": 3675,
      "lat": 57.184186,
      "lon": -5.154837,
      "gridRef": "NH094147",
      "source": "Database of British and Irish Hills v18.4"
    },
    {
      "id": "dobih-1395",
      "dobihId": 1395,
      "name": "A' Chruach",
      "list": ["marilyns"],
      "region": "Oban to Loch Fyne",
      "heightM": 366,
      "heightFt": 1201,
      "lat": 56.342862,
      "lon": -5.393736,
      "gridRef": "NM903218",
      "source": "Database of British and Irish Hills v18.4"
    },
    {
      "id": "dobih-1480",
      "dobihId": 1480,
      "name": "A' Chruach",
      "list": ["marilyns"],
      "region": "Arran and Holy Island",
      "heightM": 512.5,
      "heightFt": 1681,
      "lat": 55.55326,
      "lon": -5.220376,
      "gridRef": "NR969335",
      "source": "Database of British and Irish Hills v18.4"
    },
    {
      "id": "dobih-846",
      "dobihId": 846,
      "name": "A' Ghlas-bheinn",
      "list": ["munros", "marilyns"],
      "region": "Loch Duich to Cannich",
      "heightM": 918,
      "heightFt": 3012,
      "lat": 57.255081,
      "lon": -5.303686,
      "gridRef": "NH008231",
      "source": "Database of British and Irish Hills v18.4"
    },
    {
      "id": "dobih-1014",
      "dobihId": 1014,
      "name": "A' Mhaighdean",
      "list": ["munros", "marilyns"],
      "region": "Loch Maree to Loch Broom",
      "heightM": 965.8,
      "heightFt": 3169,
      "lat": 57.719653,
      "lon": -5.346738,
      "gridRef": "NH007749",
      "source": "Database of British and Irish Hills v18.4"
    },
    {
      "id": "dobih-2193",
      "dobihId": 2193,
      "name": "Aberedw Hill",
      "list": ["marilyns"],
      "region": "Welshpool to Hay-on-Wye",
      "heightM": 450.9,
      "heightFt": 1479,
      "lat": 52.147657,
      "lon": -3.339464,
      "gridRef": "SO084507",
      "source": "Database of British and Irish Hills v18.4"
    },
    {
      "id": "dobih-2864",
      "dobihId": 2864,
      "name": "Aconbury Hill",
      "list": ["marilyns"],
      "region": "Welsh Borders S",
      "heightM": 275.6,
      "heightFt": 904,
      "lat": 51.993209,
      "lon": -2.721104,
      "gridRef": "SO505329",
      "source": "Database of British and Irish Hills v18.4"
    },
    {
      "id": "dobih-20292",
      "dobihId": 20292,
      "name": "Agnew's Hill",
      "list": ["marilyns"],
      "region": "Antrim Mountains",
      "heightM": 474,
      "heightFt": 1555,
      "lat": 54.844378,
      "lon": -5.934211,
      "gridRef": "D327015",
      "source": "Database of British and Irish Hills v18.4"
    },
    {
      "id": "dobih-1731",
      "dobihId": 1731,
      "name": "Ailsa Craig",
      "list": ["marilyns"],
      "region": "Carrick and Galloway",
      "heightM": 339,
      "heightFt": 1112,
      "lat": 55.252804,
      "lon": -5.1184,
      "gridRef": "NX019998",
      "source": "Database of British and Irish Hills v18.4"
    },
    {
      "id": "dobih-1293",
      "dobihId": 1293,
      "name": "Ainshval",
      "list": ["corbetts", "marilyns"],
      "region": "Canna, Rhum and Eigg",
      "heightM": 781,
      "heightFt": 2562,
      "lat": 56.96563,
      "lon": -6.314678,
      "gridRef": "NM378943",
      "source": "Database of British and Irish Hills v18.4"
    },
    {
      "id": "dobih-231",
      "dobihId": 231,
      "name": "Airds Hill",
      "list": ["marilyns"],
      "region": "Loch Linnhe to Loch Etive",
      "heightM": 181,
      "heightFt": 594,
      "lat": 56.558846,
      "lon": -5.376288,
      "gridRef": "NM926458",
      "source": "Database of British and Irish Hills v18.4"
    },
    {
      "id": "dobih-1617",
      "dobihId": 1617,
      "name": "Airneabhal [Arnaval]",
      "list": ["marilyns"],
      "region": "North Uist, South Uist and Nearby Islands",
      "heightM": 254.9,
      "heightFt": 836,
      "lat": 57.207914,
      "lon": -7.326663,
      "gridRef": "NF785256",
      "source": "Database of British and Irish Hills v18.4"
    },
    {
      "id": "dobih-1816",
      "dobihId": 1816,
      "name": "Allermuir Hill",
      "list": ["marilyns"],
      "region": "Firth of Forth to the River Tweed",
      "heightM": 493,
      "heightFt": 1617,
      "lat": 55.882495,
      "lon": -3.237183,
      "gridRef": "NT227661",
      "source": "Database of British and Irish Hills v18.4"
    },
    {
      "id": "dobih-2134",
      "dobihId": 2134,
      "name": "Allt y Main",
      "list": ["marilyns"],
      "region": "Bala to Welshpool",
      "heightM": 356.3,
      "heightFt": 1169,
      "lat": 52.727448,
      "lon": -3.24216,
      "gridRef": "SJ162151",
      "source": "Database of British and Irish Hills v18.4"
    },
    {
      "id": "dobih-2273",
      "dobihId": 2273,
      "name": "Allt yr Esgair",
      "list": ["marilyns"],
      "region": "Black Mountains",
      "heightM": 392.6,
      "heightFt": 1288,
      "lat": 51.910863,
      "lon": -3.27181,
      "gridRef": "SO126243",
      "source": "Database of British and Irish Hills v18.4"
    },
    {
      "id": "dobih-2006",
      "dobihId": 2006,
      "name": "Allt-fawr",
      "list": ["hewitts", "marilyns"],
      "region": "The Moelwyns",
      "heightM": 697.9,
      "heightFt": 2290,
      "lat": 53.008185,
      "lon": -3.966234,
      "gridRef": "SH681474",
      "source": "Database of British and Irish Hills v18.4"
    },
    {
      "id": "dobih-855",
      "dobihId": 855,
      "name": "Am Bathach",
      "list": ["corbetts", "marilyns"],
      "region": "Loch Duich to Cannich",
      "heightM": 798.1,
      "heightFt": 2618,
      "lat": 57.179265,
      "lon": -5.189109,
      "gridRef": "NH073143",
      "source": "Database of British and Irish Hills v18.4"
    },
    {
      "id": "dobih-303",
      "dobihId": 303,
      "name": "Am Bodach",
      "list": ["munros", "marilyns"],
      "region": "Fort William to Loch Treig & Loch Leven",
      "heightM": 1031.8,
      "heightFt": 3385,
      "lat": 56.74173,
      "lon": -4.98337,
      "gridRef": "NN176650",
      "source": "Database of British and Irish Hills v18.4"
    },
    {
      "id": "dobih-1066",
      "dobihId": 1066,
      "name": "Am Faochagach",
      "list": ["munros", "marilyns"],
      "region": "Loch Broom to Strath Oykel",
      "heightM": 953,
      "heightFt": 3127,
      "lat": 57.771801,
      "lon": -4.853882,
      "gridRef": "NH303793",
      "source": "Database of British and Irish Hills v18.4"
    },
    {
      "id": "dobih-1060",
      "dobihId": 1060,
      "name": "An Cabar",
      "list": ["marilyns"],
      "region": "The Fannaichs",
      "heightM": 558.3,
      "heightFt": 1832,
      "lat": 57.63316,
      "lon": -4.92057,
      "gridRef": "NH257641",
      "source": "Database of British and Irish Hills v18.4"
    },
    {
      "id": "dobih-31",
      "dobihId": 31,
      "name": "An Caisteal",
      "list": ["munros", "marilyns"],
      "region": "Loch Lomond to Strathyre",
      "heightM": 995.9,
      "heightFt": 3267,
      "lat": 56.338618,
      "lon": -4.62437,
      "gridRef": "NN378193",
      "source": "Database of British and Irish Hills v18.4"
    },
    {
      "id": "dobih-1587",
      "dobihId": 1587,
      "name": "An Cliseam [Clisham]",
      "list": ["corbetts", "marilyns"],
      "region": "Harris and Nearby Islands",
      "heightM": 800,
      "heightFt": 2625,
      "lat": 57.963896,
      "lon": -6.812779,
      "gridRef": "NB154073",
      "source": "Database of British and Irish Hills v18.4"
    },
    {
      "id": "dobih-1600",
      "dobihId": 1600,
      "name": "An Coileach",
      "list": ["marilyns"],
      "region": "Harris and Nearby Islands",
      "heightM": 389,
      "heightFt": 1276,
      "lat": 57.829456,
      "lon": -6.910323,
      "gridRef": "NG086927",
      "source": "Database of British and Irish Hills v18.4"
    },
    {
      "id": "dobih-944",
      "dobihId": 944,
      "name": "An Cruachan",
      "list": ["grahams", "marilyns"],
      "region": "Killilan to Inverness",
      "heightM": 705,
      "heightFt": 2313,
      "lat": 57.373247,
      "lon": -5.171897,
      "gridRef": "NH093358",
      "source": "Database of British and Irish Hills v18.4"
    },
    {
      "id": "dobih-1273",
      "dobihId": 1273,
      "name": "An Cruachan",
      "list": ["marilyns"],
      "region": "Minginish and the Cuillin Hills",
      "heightM": 435,
      "heightFt": 1427,
      "lat": 57.218253,
      "lon": -6.338703,
      "gridRef": "NG381225",
      "source": "Database of British and Irish Hills v18.4"
    },
    {
      "id": "dobih-980",
      "dobihId": 980,
      "name": "An Cuaidh",
      "list": ["marilyns"],
      "region": "Loch Torridon to Loch Maree",
      "heightM": 296,
      "heightFt": 971,
      "lat": 57.835629,
      "lon": -5.766643,
      "gridRef": "NG765891",
      "source": "Database of British and Irish Hills v18.4"
    },
    {
      "id": "dobih-400",
      "dobihId": 400,
      "name": "An Dun",
      "list": ["corbetts", "marilyns"],
      "region": "Loch Ericht to Glen Tromie & Glen Garry",
      "heightM": 827.4,
      "heightFt": 2715,
      "lat": 56.894797,
      "lon": -4.108635,
      "gridRef": "NN716801",
      "source": "Database of British and Irish Hills v18.4"
    },
    {
      "id": "dobih-312",
      "dobihId": 312,
      "name": "An Gearanach",
      "list": ["munros", "marilyns"],
      "region": "Fort William to Loch Treig & Loch Leven",
      "heightM": 981.5,
      "heightFt": 3220,
      "lat": 56.759172,
      "lon": -4.96623,
      "gridRef": "NN187669",
      "source": "Database of British and Irish Hills v18.4"
    },
    {
      "id": "dobih-224",
      "dobihId": 224,
      "name": "An Grianan",
      "list": ["marilyns"],
      "region": "Loch Linnhe to Loch Etive",
      "heightM": 549,
      "heightFt": 1801,
      "lat": 56.582778,
      "lon": -5.135769,
      "gridRef": "NN075478",
      "source": "Database of British and Irish Hills v18.4"
    },
    {
      "id": "dobih-1115",
      "dobihId": 1115,
      "name": "An Grianan",
      "list": ["marilyns"],
      "region": "Cape Wrath Peninsula",
      "heightM": 467,
      "heightFt": 1532,
      "lat": 58.517778,
      "lon": -4.981173,
      "gridRef": "NC264627",
      "source": "Database of British and Irish Hills v18.4"
    },
    {
      "id": "dobih-1140",
      "dobihId": 1140,
      "name": "An Lean-charn",
      "list": ["marilyns"],
      "region": "Durness to Loch Shin",
      "heightM": 521,
      "heightFt": 1709,
      "lat": 58.432866,
      "lon": -4.708197,
      "gridRef": "NC419525",
      "source": "Database of British and Irish Hills v18.4"
    },
    {
      "id": "dobih-927",
      "dobihId": 927,
      "name": "An Riabhachan",
      "list": ["munros", "marilyns"],
      "region": "Killilan to Inverness",
      "heightM": 1129,
      "heightFt": 3704,
      "lat": 57.362437,
      "lon": -5.104745,
      "gridRef": "NH133344",
      "source": "Database of British and Irish Hills v18.4"
    },
    {
      "id": "dobih-976",
      "dobihId": 976,
      "name": "An Ruadh-mheallan",
      "list": ["grahams", "marilyns"],
      "region": "Loch Torridon to Loch Maree",
      "heightM": 671.7,
      "heightFt": 2204,
      "lat": 57.591138,
      "lon": -5.622199,
      "gridRef": "NG836614",
      "source": "Database of British and Irish Hills v18.4"
    },
    {
      "id": "dobih-988",
      "dobihId": 988,
      "name": "An Ruadh-Stac",
      "list": ["corbetts", "marilyns"],
      "region": "Applecross to Achnasheen",
      "heightM": 890.4,
      "heightFt": 2921,
      "lat": 57.475008,
      "lon": -5.468322,
      "gridRef": "NG921480",
      "source": "Database of British and Irish Hills v18.4"
    },
    {
      "id": "dobih-407",
      "dobihId": 407,
      "name": "An Sgarsoch",
      "list": ["munros", "marilyns"],
      "region": "Glen Tromie to Glen Tilt",
      "heightM": 1006.5,
      "heightFt": 3302,
      "lat": 56.932109,
      "lon": -3.754294,
      "gridRef": "NN933836",
      "source": "Database of British and Irish Hills v18.4"
    },
    {
      "id": "dobih-1002",
      "dobihId": 1002,
      "name": "An Sgurr",
      "list": ["marilyns"],
      "region": "Applecross to Achnasheen",
      "heightM": 391,
      "heightFt": 1283,
      "lat": 57.388453,
      "lon": -5.567399,
      "gridRef": "NG857387",
      "source": "Database of British and Irish Hills v18.4"
    },
    {
      "id": "dobih-1296",
      "dobihId": 1296,
      "name": "An Sgurr",
      "list": ["marilyns"],
      "region": "Canna, Rhum and Eigg",
      "heightM": 394,
      "heightFt": 1293,
      "lat": 56.884144,
      "lon": -6.166052,
      "gridRef": "NM463847",
      "source": "Database of British and Irish Hills v18.4"
    },
    {
      "id": "dobih-910",
      "dobihId": 910,
      "name": "An Sithean [An Sidhean]",
      "list": ["corbetts", "marilyns"],
      "region": "Kyle of Lochalsh to Garve",
      "heightM": 814,
      "heightFt": 2671,
      "lat": 57.46181,
      "lon": -5.050778,
      "gridRef": "NH171453",
      "source": "Database of British and Irish Hills v18.4"
    },
    {
      "id": "dobih-1379",
      "dobihId": 1379,
      "name": "An Sleaghach",
      "list": ["marilyns"],
      "region": "Morvern and Kingairloch",
      "heightM": 515,
      "heightFt": 1690,
      "lat": 56.529381,
      "lon": -5.636142,
      "gridRef": "NM764434",
      "source": "Database of British and Irish Hills v18.4"
    },
    {
      "id": "dobih-433",
      "dobihId": 433,
      "name": "An Socach",
      "list": ["munros", "marilyns"],
      "region": "Pitlochry to Braemar & Blairgowrie",
      "heightM": 942.8,
      "heightFt": 3093,
      "lat": 56.902007,
      "lon": -3.512431,
      "gridRef": "NO079799",
      "source": "Database of British and Irish Hills v18.4"
    },
    {
      "id": "dobih-931",
      "dobihId": 931,
      "name": "An Socach",
      "list": ["munros", "marilyns"],
      "region": "Killilan to Inverness",
      "heightM": 1069,
      "heightFt": 3507,
      "lat": 57.350229,
      "lon": -5.158603,
      "gridRef": "NH100332",
      "source": "Database of British and Irish Hills v18.4"
    },
    {
      "id": "dobih-1119",
      "dobihId": 1119,
      "name": "An Socach",
      "list": ["marilyns"],
      "region": "Cape Wrath Peninsula",
      "heightM": 362,
      "heightFt": 1188,
      "lat": 58.481126,
      "lon": -4.976692,
      "gridRef": "NC265586",
      "source": "Database of British and Irish Hills v18.4"
    },
    {
      "id": "dobih-788",
      "dobihId": 788,
      "name": "An Stac",
      "list": ["grahams", "marilyns"],
      "region": "Mallaig to Fort William",
      "heightM": 717.8,
      "heightFt": 2355,
      "lat": 56.942075,
      "lon": -5.508598,
      "gridRef": "NM866889",
      "source": "Database of British and Irish Hills v18.4"
    },
    {
      "id": "dobih-1336",
      "dobihId": 1336,
      "name": "An Stac",
      "list": ["corbetts", "marilyns"],
      "region": "Moidart and Ardnamurchan",
      "heightM": 814,
      "heightFt": 2671,
      "lat": 56.850976,
      "lon": -5.670119,
      "gridRef": "NM763792",
      "source": "Database of British and Irish Hills v18.4"
    },
    {
      "id": "dobih-998",
      "dobihId": 998,
      "name": "An Staonach",
      "list": ["marilyns"],
      "region": "Applecross to Achnasheen",
      "heightM": 516,
      "heightFt": 1693,
      "lat": 57.471012,
      "lon": -5.620553,
      "gridRef": "NG829480",
      "source": "Database of British and Irish Hills v18.4"
    },
    {
      "id": "dobih-1003",
      "dobihId": 1003,
      "name": "An Teallach - Bidein a' Ghlas Thuill",
      "list": ["munros", "marilyns"],
      "region": "Loch Maree to Loch Broom",
      "heightM": 1062.6,
      "heightFt": 3486,
      "lat": 57.807107,
      "lon": -5.251768,
      "gridRef": "NH068843",
      "source": "Database of British and Irish Hills v18.4"
    },
    {
      "id": "dobih-1634",
      "dobihId": 1634,
      "name": "An Tobha [The Hoe]",
      "list": ["marilyns"],
      "region": "Barra to Barra Head",
      "heightM": 171,
      "heightFt": 561,
      "lat": 56.851355,
      "lon": -7.589839,
      "gridRef": "NL593872",
      "source": "Database of British and Irish Hills v18.4"
    },
    {
      "id": "dobih-1876",
      "dobihId": 1876,
      "name": "Andrewhinney Hill",
      "list": ["grahams", "donalds", "marilyns"],
      "region": "Ettrick Hills",
      "heightM": 677.3,
      "heightFt": 2222,
      "lat": 55.412224,
      "lon": -3.268959,
      "gridRef": "NT197138",
      "source": "Database of British and Irish Hills v18.4"
    },
    {
      "id": "dobih-791",
      "dobihId": 791,
      "name": "Aodann Chleireig",
      "list": ["grahams", "marilyns"],
      "region": "Mallaig to Fort William",
      "heightM": 662.6,
      "heightFt": 2174,
      "lat": 56.890778,
      "lon": -5.293741,
      "gridRef": "NM994825",
      "source": "Database of British and Irish Hills v18.4"
    },
    {
      "id": "dobih-685",
      "dobihId": 685,
      "name": "Aonach air Chrith",
      "list": ["munros", "marilyns"],
      "region": "Glen Shiel to Loch Hourn and Loch Quoich",
      "heightM": 1019.5,
      "heightFt": 3345,
      "lat": 57.12464,
      "lon": -5.221291,
      "gridRef": "NH051083",
      "source": "Database of British and Irish Hills v18.4"
    },
    {
      "id": "dobih-279",
      "dobihId": 279,
      "name": "Aonach Beag",
      "list": ["munros", "marilyns"],
      "region": "Fort William to Loch Treig & Loch Leven",
      "heightM": 1234,
      "heightFt": 4049,
      "lat": 56.799998,
      "lon": -4.954138,
      "gridRef": "NN197715",
      "source": "Database of British and Irish Hills v18.4"
    },
    {
      "id": "dobih-940",
      "dobihId": 940,
      "name": "Aonach Buidhe",
      "list": ["corbetts", "marilyns"],
      "region": "Killilan to Inverness",
      "heightM": 899,
      "heightFt": 2949,
      "lat": 57.341171,
      "lon": -5.229293,
      "gridRef": "NH057324",
      "source": "Database of British and Irish Hills v18.4"
    },
    {
      "id": "dobih-178",
      "dobihId": 178,
      "name": "Aonach Eagach - Sgorr nam Fiannaidh",
      "list": ["munros", "marilyns"],
      "region": "Loch Leven to Rannoch Station",
      "heightM": 967.7,
      "heightFt": 3175,
      "lat": 56.679387,
      "lon": -5.037143,
      "gridRef": "NN140583",
      "source": "Database of British and Irish Hills v18.4"
    },
    {
      "id": "dobih-828",
      "dobihId": 828,
      "name": "Aonach Meadhoin",
      "list": ["munros", "marilyns"],
      "region": "Loch Duich to Cannich",
      "heightM": 1001,
      "heightFt": 3284,
      "lat": 57.173026,
      "lon": -5.229166,
      "gridRef": "NH048137",
      "source": "Database of British and Irish Hills v18.4"
    },
    {
      "id": "dobih-875",
      "dobihId": 875,
      "name": "Aonach Shasuinn",
      "list": ["corbetts", "marilyns"],
      "region": "Glen Affric to Glen Moriston",
      "heightM": 888,
      "heightFt": 2913,
      "lat": 57.216401,
      "lon": -5.026754,
      "gridRef": "NH173180",
      "source": "Database of British and Irish Hills v18.4"
    },
    {
      "id": "dobih-2083",
      "dobihId": 2083,
      "name": "Aran Fawddwy",
      "list": ["hewitts", "marilyns"],
      "region": "The Arans",
      "heightM": 905.6,
      "heightFt": 2971,
      "lat": 52.787016,
      "lon": -3.687855,
      "gridRef": "SH862223",
      "source": "Database of British and Irish Hills v18.4"
    },
    {
      "id": "dobih-230",
      "dobihId": 230,
      "name": "Ardsheal Hill",
      "list": ["marilyns"],
      "region": "Loch Linnhe to Loch Etive",
      "heightM": 263,
      "heightFt": 863,
      "lat": 56.660324,
      "lon": -5.272779,
      "gridRef": "NM995568",
      "source": "Database of British and Irish Hills v18.4"
    },
    {
      "id": "dobih-2063",
      "dobihId": 2063,
      "name": "Arenig Fach",
      "list": ["hewitts", "marilyns"],
      "region": "The Arenigs",
      "heightM": 688.8,
      "heightFt": 2260,
      "lat": 52.958695,
      "lon": -3.757706,
      "gridRef": "SH820415",
      "source": "Database of British and Irish Hills v18.4"
    },
    {
      "id": "dobih-2053",
      "dobihId": 2053,
      "name": "Arenig Fawr",
      "list": ["hewitts", "marilyns"],
      "region": "The Arenigs",
      "heightM": 854,
      "heightFt": 2802,
      "lat": 52.917116,
      "lon": -3.745937,
      "gridRef": "SH827369",
      "source": "Database of British and Irish Hills v18.4"
    },
    {
      "id": "dobih-1129",
      "dobihId": 1129,
      "name": "Arkle",
      "list": ["corbetts", "marilyns"],
      "region": "Durness to Loch Shin",
      "heightM": 787,
      "heightFt": 2582,
      "lat": 58.371062,
      "lon": -4.903644,
      "gridRef": "NC302461",
      "source": "Database of British and Irish Hills v18.4"
    },
    {
      "id": "dobih-1275",
      "dobihId": 1275,
      "name": "Arnaval",
      "list": ["marilyns"],
      "region": "Minginish and the Cuillin Hills",
      "heightM": 369,
      "heightFt": 1211,
      "lat": 57.298164,
      "lon": -6.408633,
      "gridRef": "NG345316",
      "source": "Database of British and Irish Hills v18.4"
    },
    {
      "id": "dobih-3321",
      "dobihId": 3321,
      "name": "Arnside Knott",
      "list": ["marilyns"],
      "region": "Lake District - Far Eastern Fells",
      "heightM": 159.1,
      "heightFt": 522,
      "lat": 54.190186,
      "lon": -2.835028,
      "gridRef": "SD456774",
      "source": "Database of British and Irish Hills v18.4"
    },
    {
      "id": "dobih-1828",
      "dobihId": 1828,
      "name": "Arthur's Seat",
      "list": ["marilyns"],
      "region": "Firth of Forth to the River Tweed",
      "heightM": 251,
      "heightFt": 823,
      "lat": 55.94408,
      "lon": -3.161824,
      "gridRef": "NT275729",
      "source": "Database of British and Irish Hills v18.4"
    },
    {
      "id": "dobih-1292",
      "dobihId": 1292,
      "name": "Askival",
      "list": ["corbetts", "marilyns"],
      "region": "Canna, Rhum and Eigg",
      "heightM": 812,
      "heightFt": 2664,
      "lat": 56.974433,
      "lon": -6.291504,
      "gridRef": "NM393952",
      "source": "Database of British and Irish Hills v18.4"
    },
    {
      "id": "dobih-4",
      "dobihId": 4,
      "name": "Auchnafree Hill",
      "list": ["corbetts", "marilyns"],
      "region": "Loch Tay to Perth",
      "heightM": 787.4,
      "heightFt": 2583,
      "lat": 56.454355,
      "lon": -3.934667,
      "gridRef": "NN808308",
      "source": "Database of British and Irish Hills v18.4"
    },
    {
      "id": "dobih-921",
      "dobihId": 921,
      "name": "Auchtertyre Hill",
      "list": ["marilyns"],
      "region": "Kyle of Lochalsh to Garve",
      "heightM": 452.6,
      "heightFt": 1485,
      "lat": 57.299516,
      "lon": -5.599449,
      "gridRef": "NG832289",
      "source": "Database of British and Irish Hills v18.4"
    },
    {
      "id": "dobih-2802",
      "dobihId": 2802,
      "name": "Aye Gill Pike",
      "list": ["marilyns"],
      "region": "Yorkshire Dales - Southern Fells",
      "heightM": 556.4,
      "heightFt": 1825,
      "lat": 54.292378,
      "lon": -2.430633,
      "gridRef": "SD720886",
      "source": "Database of British and Irish Hills v18.4"
    },
    {
      "id": "dobih-907",
      "dobihId": 907,
      "name": "Bac an Eich",
      "list": ["corbetts", "marilyns"],
      "region": "Kyle of Lochalsh to Garve",
      "heightM": 849,
      "heightFt": 2785,
      "lat": 57.495767,
      "lon": -4.968291,
      "gridRef": "NH222489",
      "source": "Database of British and Irish Hills v18.4"
    },
    {
      "id": "dobih-1001",
      "dobihId": 1001,
      "name": "Bad a' Chreamha",
      "list": ["marilyns"],
      "region": "Applecross to Achnasheen",
      "heightM": 395,
      "heightFt": 1296,
      "lat": 57.369692,
      "lon": -5.564494,
      "gridRef": "NG857366",
      "source": "Database of British and Irish Hills v18.4"
    },
    {
      "id": "dobih-498",
      "dobihId": 498,
      "name": "Badandun Hill",
      "list": ["grahams", "marilyns"],
      "region": "Braemar to Montrose",
      "heightM": 740.3,
      "heightFt": 2429,
      "lat": 56.795702,
      "lon": -3.299171,
      "gridRef": "NO207678",
      "source": "Database of British and Irish Hills v18.4"
    },
    {
      "id": "dobih-1795",
      "dobihId": 1795,
      "name": "Bainloch Hill",
      "list": ["marilyns"],
      "region": "The Glenkens to Annandale",
      "heightM": 287,
      "heightFt": 942,
      "lat": 54.896273,
      "lon": -3.726922,
      "gridRef": "NX893570",
      "source": "Database of British and Irish Hills v18.4"
    },
    {
      "id": "dobih-20354",
      "dobihId": 20354,
      "name": "Balix Hill",
      "list": ["marilyns"],
      "region": "Sperrin Mountains",
      "heightM": 403,
      "heightFt": 1322,
      "lat": 54.811393,
      "lon": -7.261973,
      "gridRef": "H475962",
      "source": "Database of British and Irish Hills v18.4"
    },
    {
      "id": "dobih-1746",
      "dobihId": 1746,
      "name": "Ballencleuch Law",
      "list": ["grahams", "donalds", "marilyns"],
      "region": "Lowther Hills",
      "heightM": 691.4,
      "heightFt": 2268,
      "lat": 55.327237,
      "lon": -3.679204,
      "gridRef": "NS935049",
      "source": "Database of British and Irish Hills v18.4"
    },
    {
      "id": "dobih-1827",
      "dobihId": 1827,
      "name": "Ballencrieff Hill [Cairnpapple Hill]",
      "list": ["marilyns"],
      "region": "Firth of Forth to the River Tweed",
      "heightM": 312,
      "heightFt": 1024,
      "lat": 55.922763,
      "lon": -3.621755,
      "gridRef": "NS987711",
      "source": "Database of British and Irish Hills v18.4"
    },
    {
      "id": "dobih-2166",
      "dobihId": 2166,
      "name": "Banc Llechwedd-mawr",
      "list": ["marilyns"],
      "region": "Central Wales - Pumlumon",
      "heightM": 560,
      "heightFt": 1837,
      "lat": 52.492693,
      "lon": -3.805128,
      "gridRef": "SN775898",
      "source": "Database of British and Irish Hills v18.4"
    },
    {
      "id": "dobih-973",
      "dobihId": 973,
      "name": "Baosbheinn",
      "list": ["corbetts", "marilyns"],
      "region": "Loch Torridon to Loch Maree",
      "heightM": 875,
      "heightFt": 2871,
      "lat": 57.628255,
      "lon": -5.568634,
      "gridRef": "NG870654",
      "source": "Database of British and Irish Hills v18.4"
    },
    {
      "id": "dobih-2873",
      "dobihId": 2873,
      "name": "Bardon Hill",
      "list": ["marilyns"],
      "region": "Central and Eastern England",
      "heightM": 279.9,
      "heightFt": 918,
      "lat": 52.714415,
      "lon": -1.319282,
      "gridRef": "SK460131",
      "source": "Database of British and Irish Hills v18.4"
    },
    {
      "id": "dobih-2730",
      "dobihId": 2730,
      "name": "Baugh Fell - Tarn Rigg Hill",
      "list": ["hewitts", "marilyns"],
      "region": "Yorkshire Dales - Northern Fells",
      "heightM": 678.4,
      "heightFt": 2226,
      "lat": 54.319743,
      "lon": -2.399849,
      "gridRef": "SD740916",
      "source": "Database of British and Irish Hills v18.4"
    },
    {
      "id": "dobih-2891",
      "dobihId": 2891,
      "name": "Beacon Batch",
      "list": ["marilyns"],
      "region": "South Central England",
      "heightM": 323.7,
      "heightFt": 1062,
      "lat": 51.312465,
      "lon": -2.741302,
      "gridRef": "ST484573",
      "source": "Database of British and Irish Hills v18.4"
    },
    {
      "id": "dobih-2183",
      "dobihId": 2183,
      "name": "Beacon Hill",
      "list": ["marilyns"],
      "region": "Welshpool to Hay-on-Wye",
      "heightM": 547,
      "heightFt": 1795,
      "lat": 52.382978,
      "lon": -3.211399,
      "gridRef": "SO176767",
      "source": "Database of British and Irish Hills v18.4"
    },
    {
      "id": "dobih-648",
      "dobihId": 648,
      "name": "Beinn a' Bhacaidh",
      "list": ["marilyns"],
      "region": "Glen Albyn and the Monadh Liath",
      "heightM": 555,
      "heightFt": 1821,
      "lat": 57.17125,
      "lon": -4.595836,
      "gridRef": "NH431119",
      "source": "Database of British and Irish Hills v18.4"
    },
    {
      "id": "dobih-1347",
      "dobihId": 1347,
      "name": "Beinn a' Bhaillidh",
      "list": ["marilyns"],
      "region": "Moidart and Ardnamurchan",
      "heightM": 266,
      "heightFt": 873,
      "lat": 56.799399,
      "lon": -5.851987,
      "gridRef": "NM649741",
      "source": "Database of British and Irish Hills v18.4"
    },
    {
      "id": "dobih-905",
      "dobihId": 905,
      "name": "Beinn a' Bhathaich Ard [Beinn a' Bha' ach Ard]",
      "list": ["corbetts", "marilyns"],
      "region": "Kyle of Lochalsh to Garve",
      "heightM": 862,
      "heightFt": 2828,
      "lat": 57.451935,
      "lon": -4.733922,
      "gridRef": "NH360434",
      "source": "Database of British and Irish Hills v18.4"
    },
    {
      "id": "dobih-195",
      "dobihId": 195,
      "name": "Beinn a' Bheithir - Sgorr Dhearg",
      "list": ["munros", "marilyns"],
      "region": "Loch Linnhe to Loch Etive",
      "heightM": 1024.2,
      "heightFt": 3360,
      "lat": 56.65393,
      "lon": -5.171511,
      "gridRef": "NN056558",
      "source": "Database of British and Irish Hills v18.4"
    },
    {
      "id": "dobih-198",
      "dobihId": 198,
      "name": "Beinn a' Bheithir - Sgorr Dhonuill",
      "list": ["munros", "marilyns"],
      "region": "Loch Linnhe to Loch Etive",
      "heightM": 1002.1,
      "heightFt": 3288,
      "lat": 56.650531,
      "lon": -5.19789,
      "gridRef": "NN040555",
      "source": "Database of British and Irish Hills v18.4"
    },
    {
      "id": "dobih-1271",
      "dobihId": 1271,
      "name": "Beinn a' Bhraghad",
      "list": ["marilyns"],
      "region": "Minginish and the Cuillin Hills",
      "heightM": 461,
      "heightFt": 1512,
      "lat": 57.245867,
      "lon": -6.295516,
      "gridRef": "NG409254",
      "source": "Database of British and Irish Hills v18.4"
    },
    {
      "id": "dobih-529",
      "dobihId": 529,
      "name": "Beinn a' Bhuird [Beinn a' Bhuird North Top]",
      "list": ["munros", "marilyns"],
      "region": "Cairngorms",
      "heightM": 1196,
      "heightFt": 3924,
      "lat": 57.087581,
      "lon": -3.499383,
      "gridRef": "NJ092006",
      "source": "Database of British and Irish Hills v18.4"
    },
    {
      "id": "dobih-262",
      "dobihId": 262,
      "name": "Beinn a' Bhuiridh",
      "list": ["corbetts", "marilyns"],
      "region": "Glen Etive to Glen Lochy",
      "heightM": 898.4,
      "heightFt": 2948,
      "lat": 56.409087,
      "lon": -5.09026,
      "gridRef": "NN094283",
      "source": "Database of British and Irish Hills v18.4"
    },
    {
      "id": "dobih-1034",
      "dobihId": 1034,
      "name": "Beinn a' Chaisgein Beag",
      "list": ["grahams", "marilyns"],
      "region": "Loch Maree to Loch Broom",
      "heightM": 682.3,
      "heightFt": 2239,
      "lat": 57.7826,
      "lon": -5.422825,
      "gridRef": "NG966821",
      "source": "Database of British and Irish Hills v18.4"
    },
    {
      "id": "dobih-1027",
      "dobihId": 1027,
      "name": "Beinn a' Chaisgein Mor",
      "list": ["corbetts", "marilyns"],
      "region": "Loch Maree to Loch Broom",
      "heightM": 856,
      "heightFt": 2808,
      "lat": 57.751165,
      "lon": -5.39209,
      "gridRef": "NG982785",
      "source": "Database of British and Irish Hills v18.4"
    },
    {
      "id": "dobih-1382",
      "dobihId": 1382,
      "name": "Beinn a' Chaisil",
      "list": ["marilyns"],
      "region": "Morvern and Kingairloch",
      "heightM": 437,
      "heightFt": 1434,
      "lat": 56.568588,
      "lon": -5.61411,
      "gridRef": "NM780476",
      "source": "Database of British and Irish Hills v18.4"
    },
    {
      "id": "dobih-170",
      "dobihId": 170,
      "name": "Beinn a' Chaisteil",
      "list": ["corbetts", "marilyns"],
      "region": "Glen Lyon to Glen Dochart & Loch Tay",
      "heightM": 886,
      "heightFt": 2907,
      "lat": 56.490614,
      "lon": -4.686104,
      "gridRef": "NN347364",
      "source": "Database of British and Irish Hills v18.4"
    },
    {
      "id": "dobih-1096",
      "dobihId": 1096,
      "name": "Beinn a' Chaisteil",
      "list": ["corbetts", "marilyns"],
      "region": "Loch Vaich to Moray Firth",
      "heightM": 787,
      "heightFt": 2582,
      "lat": 57.78092,
      "lon": -4.742993,
      "gridRef": "NH369801",
      "source": "Database of British and Irish Hills v18.4"
    },
    {
      "id": "dobih-728",
      "dobihId": 728,
      "name": "Beinn a' Chaoinich",
      "list": ["marilyns"],
      "region": "Glen Shiel to Loch Hourn and Loch Quoich",
      "heightM": 410,
      "heightFt": 1345,
      "lat": 57.206171,
      "lon": -5.545073,
      "gridRef": "NG859183",
      "source": "Database of British and Irish Hills v18.4"
    },
    {
      "id": "dobih-1451",
      "dobihId": 1451,
      "name": "Beinn a' Chaolais",
      "list": ["grahams", "marilyns"],
      "region": "Jura, Scarba and Colonsay",
      "heightM": 735.2,
      "heightFt": 2412,
      "lat": 55.888509,
      "lon": -6.017395,
      "gridRef": "NR488734",
      "source": "Database of British and Irish Hills v18.4"
    },
    {
      "id": "dobih-559",
      "dobihId": 559,
      "name": "Beinn a' Chaorainn",
      "list": ["munros", "marilyns"],
      "region": "Cairngorms",
      "heightM": 1083.3,
      "heightFt": 3554,
      "lat": 57.093263,
      "lon": -3.577433,
      "gridRef": "NJ045013",
      "source": "Database of British and Irish Hills v18.4"
    },
    {
      "id": "dobih-663",
      "dobihId": 663,
      "name": "Beinn a' Chaorainn",
      "list": ["munros", "marilyns"],
      "region": "Loch Lochy to Loch Laggan",
      "heightM": 1049.1,
      "heightFt": 3442,
      "lat": 56.928624,
      "lon": -4.653644,
      "gridRef": "NN386850",
      "source": "Database of British and Irish Hills v18.4"
    },
    {
      "id": "dobih-722",
      "dobihId": 722,
      "name": "Beinn a' Chapuill",
      "list": ["grahams", "marilyns"],
      "region": "Glen Shiel to Loch Hourn and Loch Quoich",
      "heightM": 759.8,
      "heightFt": 2493,
      "lat": 57.17319,
      "lon": -5.582876,
      "gridRef": "NG835148",
      "source": "Database of British and Irish Hills v18.4"
    },
    {
      "id": "dobih-1621",
      "dobihId": 1621,
      "name": "Beinn a' Charnain",
      "list": ["marilyns"],
      "region": "North Uist, South Uist and Nearby Islands",
      "heightM": 196,
      "heightFt": 643,
      "lat": 57.777845,
      "lon": -7.227191,
      "gridRef": "NF893884",
      "source": "Database of British and Irish Hills v18.4"
    },
    {
      "id": "dobih-975",
      "dobihId": 975,
      "name": "Beinn a' Chearcaill",
      "list": ["grahams", "marilyns"],
      "region": "Loch Torridon to Loch Maree",
      "heightM": 725.4,
      "heightFt": 2380,
      "lat": 57.616224,
      "lon": -5.465765,
      "gridRef": "NG931637",
      "source": "Database of British and Irish Hills v18.4"
    },
    {
      "id": "dobih-995",
      "dobihId": 995,
      "name": "Beinn a' Chlachain [Meall an Doireachain]",
      "list": ["grahams", "marilyns"],
      "region": "Applecross to Achnasheen",
      "heightM": 625.8,
      "heightFt": 2053,
      "lat": 57.474388,
      "lon": -5.797506,
      "gridRef": "NG724490",
      "source": "Database of British and Irish Hills v18.4"
    },
    {
      "id": "dobih-349",
      "dobihId": 349,
      "name": "Beinn a' Chlachair",
      "list": ["munros", "marilyns"],
      "region": "Loch Treig to Loch Ericht",
      "heightM": 1087.8,
      "heightFt": 3569,
      "lat": 56.869534,
      "lon": -4.509668,
      "gridRef": "NN471781",
      "source": "Database of British and Irish Hills v18.4"
    },
    {
      "id": "dobih-1024",
      "dobihId": 1024,
      "name": "Beinn a' Chlaidheimh",
      "list": ["corbetts", "marilyns"],
      "region": "Loch Maree to Loch Broom",
      "heightM": 913.96,
      "heightFt": 2999,
      "lat": 57.745922,
      "lon": -5.259066,
      "gridRef": "NH061775",
      "source": "Database of British and Irish Hills v18.4"
    },
    {
      "id": "dobih-251",
      "dobihId": 251,
      "name": "Beinn a' Chochuill",
      "list": ["munros", "marilyns"],
      "region": "Glen Etive to Glen Lochy",
      "heightM": 980,
      "heightFt": 3215,
      "lat": 56.44979,
      "lon": -5.068552,
      "gridRef": "NN109328",
      "source": "Database of British and Irish Hills v18.4"
    },
    {
      "id": "dobih-48",
      "dobihId": 48,
      "name": "Beinn a' Choin",
      "list": ["corbetts", "marilyns"],
      "region": "Loch Lomond to Strathyre",
      "heightM": 768.7,
      "heightFt": 2522,
      "lat": 56.281091,
      "lon": -4.659915,
      "gridRef": "NN354130",
      "source": "Database of British and Irish Hills v18.4"
    },
    {
      "id": "dobih-104",
      "dobihId": 104,
      "name": "Beinn a' Chreachain",
      "list": ["munros", "marilyns"],
      "region": "Loch Rannoch to Glen Lyon",
      "heightM": 1080.6,
      "heightFt": 3545,
      "lat": 56.560387,
      "lon": -4.647573,
      "gridRef": "NN373440",
      "source": "Database of British and Irish Hills v18.4"
    },
    {
      "id": "dobih-186",
      "dobihId": 186,
      "name": "Beinn a' Chrulaiste",
      "list": ["corbetts", "marilyns"],
      "region": "Loch Leven to Rannoch Station",
      "heightM": 857,
      "heightFt": 2812,
      "lat": 56.668905,
      "lon": -4.863529,
      "gridRef": "NN246566",
      "source": "Database of British and Irish Hills v18.4"
    },
    {
      "id": "dobih-395",
      "dobihId": 395,
      "name": "Beinn a' Chuallaich",
      "list": ["corbetts", "marilyns"],
      "region": "Loch Ericht to Glen Tromie & Glen Garry",
      "heightM": 892.2,
      "heightFt": 2927,
      "lat": 56.729015,
      "lon": -4.151523,
      "gridRef": "NN684617",
      "source": "Database of British and Irish Hills v18.4"
    },
    {
      "id": "dobih-276",
      "dobihId": 276,
      "name": "Beinn a' Chuirn",
      "list": ["marilyns"],
      "region": "Glen Etive to Glen Lochy",
      "heightM": 569.4,
      "heightFt": 1868,
      "lat": 56.494071,
      "lon": -4.897651,
      "gridRef": "NN217373",
      "source": "Database of British and Irish Hills v18.4"
    },
    {
      "id": "dobih-726",
      "dobihId": 726,
      "name": "Beinn a' Chuirn",
      "list": ["grahams", "marilyns"],
      "region": "Glen Shiel to Loch Hourn and Loch Quoich",
      "heightM": 603,
      "heightFt": 1978,
      "lat": 57.238986,
      "lon": -5.53133,
      "gridRef": "NG870220",
      "source": "Database of British and Irish Hills v18.4"
    },
    {
      "id": "dobih-422",
      "dobihId": 422,
      "name": "Beinn a' Ghlo - Braigh Coire Chruinn-bhalgain",
      "list": ["munros", "marilyns"],
      "region": "Pitlochry to Braemar & Blairgowrie",
      "heightM": 1070,
      "heightFt": 3510,
      "lat": 56.831101,
      "lon": -3.729489,
      "gridRef": "NN945724",
      "source": "Database of British and Irish Hills v18.4"
    },
    {
      "id": "dobih-429",
      "dobihId": 429,
      "name": "Beinn a' Ghlo - Carn Liath",
      "list": ["munros", "marilyns"],
      "region": "Pitlochry to Braemar & Blairgowrie",
      "heightM": 975.8,
      "heightFt": 3201,
      "lat": 56.80777,
      "lon": -3.74409,
      "gridRef": "NN936698",
      "source": "Database of British and Irish Hills v18.4"
    },
    {
      "id": "dobih-421",
      "dobihId": 421,
      "name": "Beinn a' Ghlo - Carn nan Gabhar",
      "list": ["munros", "marilyns"],
      "region": "Pitlochry to Braemar & Blairgowrie",
      "heightM": 1121.9,
      "heightFt": 3681,
      "lat": 56.839846,
      "lon": -3.688022,
      "gridRef": "NN971733",
      "source": "Database of British and Irish Hills v18.4"
    },
    {
      "id": "dobih-1311",
      "dobihId": 1311,
      "name": "Beinn a' Ghraig",
      "list": ["marilyns"],
      "region": "Mull and Nearby Islands",
      "heightM": 591,
      "heightFt": 1939,
      "lat": 56.463246,
      "lon": -5.992294,
      "gridRef": "NM541372",
      "source": "Database of British and Irish Hills v18.4"
    },
    {
      "id": "dobih-95",
      "dobihId": 95,
      "name": "Beinn a' Mhanaich",
      "list": ["grahams", "marilyns"],
      "region": "Loch Long to Loch Lomond",
      "heightM": 709,
      "heightFt": 2326,
      "lat": 56.112762,
      "lon": -4.785269,
      "gridRef": "NS269946",
      "source": "Database of British and Irish Hills v18.4"
    },
    {
      "id": "dobih-861",
      "dobihId": 861,
      "name": "Beinn a' Mheadhain [Beinn a' Mheadhoin]",
      "list": ["marilyns"],
      "region": "Loch Duich to Cannich",
      "heightM": 414,
      "heightFt": 1358,
      "lat": 57.302466,
      "lon": -5.456964,
      "gridRef": "NG918288",
      "source": "Database of British and Irish Hills v18.4"
    },
    {
      "id": "dobih-859",
      "dobihId": 859,
      "name": "Beinn a' Mheadhoin",
      "list": ["grahams", "marilyns"],
      "region": "Loch Duich to Cannich",
      "heightM": 611.9,
      "heightFt": 2008,
      "lat": 57.285784,
      "lon": -4.957196,
      "gridRef": "NH218255",
      "source": "Database of British and Irish Hills v18.4"
    },
    {
      "id": "dobih-682",
      "dobihId": 682,
      "name": "Beinn a' Mhonicag",
      "list": ["marilyns"],
      "region": "Loch Lochy to Loch Laggan",
      "heightM": 567,
      "heightFt": 1860,
      "lat": 56.928966,
      "lon": -4.815036,
      "gridRef": "NN287854",
      "source": "Database of British and Irish Hills v18.4"
    },
    {
      "id": "dobih-1033",
      "dobihId": 1033,
      "name": "Beinn a' Mhuinidh",
      "list": ["grahams", "marilyns"],
      "region": "Loch Maree to Loch Broom",
      "heightM": 689.9,
      "heightFt": 2263,
      "lat": 57.641228,
      "lon": -5.298727,
      "gridRef": "NH032660",
      "source": "Database of British and Irish Hills v18.4"
    },
    {
      "id": "dobih-108",
      "dobihId": 108,
      "name": "Beinn Achaladair",
      "list": ["munros", "marilyns"],
      "region": "Loch Rannoch to Glen Lyon",
      "heightM": 1038.6,
      "heightFt": 3407,
      "lat": 56.551909,
      "lon": -4.694515,
      "gridRef": "NN344432",
      "source": "Database of British and Irish Hills v18.4"
    },
    {
      "id": "dobih-1030",
      "dobihId": 1030,
      "name": "Beinn Airigh Charr",
      "list": ["corbetts", "marilyns"],
      "region": "Loch Maree to Loch Broom",
      "heightM": 791.7,
      "heightFt": 2597,
      "lat": 57.727566,
      "lon": -5.47761,
      "gridRef": "NG930761",
      "source": "Database of British and Irish Hills v18.4"
    },
    {
      "id": "dobih-1122",
      "dobihId": 1122,
      "name": "Beinn Akie",
      "list": ["marilyns"],
      "region": "Cape Wrath Peninsula",
      "heightM": 288,
      "heightFt": 945,
      "lat": 58.541406,
      "lon": -4.852191,
      "gridRef": "NC340650",
      "source": "Database of British and Irish Hills v18.4"
    },
    {
      "id": "dobih-957",
      "dobihId": 957,
      "name": "Beinn Alligin - Sgurr Mor",
      "list": ["munros", "marilyns"],
      "region": "Loch Torridon to Loch Maree",
      "heightM": 986,
      "heightFt": 3235,
      "lat": 57.590829,
      "lon": -5.572765,
      "gridRef": "NG865612",
      "source": "Database of British and Irish Hills v18.4"
    },
    {
      "id": "dobih-968",
      "dobihId": 968,
      "name": "Beinn Alligin - Tom na Gruagaich",
      "list": ["munros", "marilyns"],
      "region": "Loch Torridon to Loch Maree",
      "heightM": 922,
      "heightFt": 3025,
      "lat": 57.580519,
      "lon": -5.581912,
      "gridRef": "NG859601",
      "source": "Database of British and Irish Hills v18.4"
    },
    {
      "id": "dobih-747",
      "dobihId": 747,
      "name": "Beinn an Aodainn [Ben Aden]",
      "list": ["corbetts", "marilyns"],
      "region": "Knoydart to Glen Kingie",
      "heightM": 887,
      "heightFt": 2910,
      "lat": 57.030736,
      "lon": -5.463143,
      "gridRef": "NM899986",
      "source": "Database of British and Irish Hills v18.4"
    },
    {
      "id": "dobih-112",
      "dobihId": 112,
      "name": "Beinn an Dothaidh",
      "list": ["munros", "marilyns"],
      "region": "Loch Rannoch to Glen Lyon",
      "heightM": 1002.3,
      "heightFt": 3288,
      "lat": 56.53013,
      "lon": -4.713981,
      "gridRef": "NN331408",
      "source": "Database of British and Irish Hills v18.4"
    },
    {
      "id": "dobih-974",
      "dobihId": 974,
      "name": "Beinn an Eoin",
      "list": ["corbetts", "marilyns"],
      "region": "Loch Torridon to Loch Maree",
      "heightM": 855,
      "heightFt": 2805,
      "lat": 57.622829,
      "lon": -5.509791,
      "gridRef": "NG905646",
      "source": "Database of British and Irish Hills v18.4"
    },
    {
      "id": "dobih-1197",
      "dobihId": 1197,
      "name": "Beinn an Eoin",
      "list": ["marilyns"],
      "region": "Scourie to Lairg",
      "heightM": 545,
      "heightFt": 1788,
      "lat": 58.034304,
      "lon": -4.729278,
      "gridRef": "NC389082",
      "source": "Database of British and Irish Hills v18.4"
    },
    {
      "id": "dobih-1211",
      "dobihId": 1211,
      "name": "Beinn an Eoin",
      "list": ["grahams", "marilyns"],
      "region": "Lochinver to Ullapool",
      "heightM": 619,
      "heightFt": 2031,
      "lat": 58.006568,
      "lon": -5.208998,
      "gridRef": "NC104064",
      "source": "Database of British and Irish Hills v18.4"
    },
    {
      "id": "dobih-1419",
      "dobihId": 1419,
      "name": "Beinn an Lochain",
      "list": ["corbetts", "marilyns"],
      "region": "Loch Fyne to Bute and the Firth of Clyde",
      "heightM": 901.7,
      "heightFt": 2958,
      "lat": 56.230094,
      "lon": -4.876228,
      "gridRef": "NN218078",
      "source": "Database of British and Irish Hills v18.4"
    },
    {
      "id": "dobih-1449",
      "dobihId": 1449,
      "name": "Beinn an Oir",
      "list": ["corbetts", "marilyns"],
      "region": "Jura, Scarba and Colonsay",
      "heightM": 785,
      "heightFt": 2575,
      "lat": 55.902396,
      "lon": -6.004137,
      "gridRef": "NR498749",
      "source": "Database of British and Irish Hills v18.4"
    },
    {
      "id": "dobih-59",
      "dobihId": 59,
      "name": "Beinn an t-Sidhein",
      "list": ["marilyns"],
      "region": "Loch Lomond to Strathyre",
      "heightM": 572,
      "heightFt": 1877,
      "lat": 56.330759,
      "lon": -4.351667,
      "gridRef": "NN546178",
      "source": "Database of British and Irish Hills v18.4"
    },
    {
      "id": "dobih-1410",
      "dobihId": 1410,
      "name": "Beinn an Tuirc",
      "list": ["marilyns"],
      "region": "Knapdale and Kintyre",
      "heightM": 454,
      "heightFt": 1490,
      "lat": 55.567283,
      "lon": -5.566618,
      "gridRef": "NR752361",
      "source": "Database of British and Irish Hills v18.4"
    },
    {
      "id": "dobih-1231",
      "dobihId": 1231,
      "name": "Beinn Bhac-ghlais",
      "list": ["marilyns"],
      "region": "North Skye and Raasay",
      "heightM": 409,
      "heightFt": 1342,
      "lat": 57.370349,
      "lon": -6.610694,
      "gridRef": "NG229405",
      "source": "Database of British and Irish Hills v18.4"
    },
    {
      "id": "dobih-89",
      "dobihId": 89,
      "name": "Beinn Bhalgairean",
      "list": ["grahams", "marilyns"],
      "region": "Inveraray to Crianlarich",
      "heightM": 636.8,
      "heightFt": 2089,
      "lat": 56.374991,
      "lon": -4.912105,
      "gridRef": "NN202241",
      "source": "Database of British and Irish Hills v18.4"
    },
    {
      "id": "dobih-783",
      "dobihId": 783,
      "name": "Beinn Bhan",
      "list": ["corbetts", "marilyns"],
      "region": "Mallaig to Fort William",
      "heightM": 795.9,
      "heightFt": 2611,
      "lat": 56.925252,
      "lon": -5.056859,
      "gridRef": "NN140857",
      "source": "Database of British and Irish Hills v18.4"
    },
    {
      "id": "dobih-987",
      "dobihId": 987,
      "name": "Beinn Bhan",
      "list": ["corbetts", "marilyns"],
      "region": "Applecross to Achnasheen",
      "heightM": 895.7,
      "heightFt": 2939,
      "lat": 57.442348,
      "lon": -5.661703,
      "gridRef": "NG803450",
      "source": "Database of British and Irish Hills v18.4"
    },
    {
      "id": "dobih-1399",
      "dobihId": 1399,
      "name": "Beinn Bhan",
      "list": ["marilyns"],
      "region": "Oban to Loch Fyne",
      "heightM": 319,
      "heightFt": 1047,
      "lat": 56.142683,
      "lon": -5.451312,
      "gridRef": "NR856998",
      "source": "Database of British and Irish Hills v18.4"
    },
    {
      "id": "dobih-1476",
      "dobihId": 1476,
      "name": "Beinn Bharrain - Mullach Buidhe",
      "list": ["grahams", "marilyns"],
      "region": "Arran and Holy Island",
      "heightM": 721.4,
      "heightFt": 2367,
      "lat": 55.633151,
      "lon": -5.334671,
      "gridRef": "NR901427",
      "source": "Database of British and Irish Hills v18.4"
    },
    {
      "id": "dobih-1059",
      "dobihId": 1059,
      "name": "Beinn Bheag",
      "list": ["grahams", "marilyns"],
      "region": "The Fannaichs",
      "heightM": 668.4,
      "heightFt": 2193,
      "lat": 57.691513,
      "lon": -5.214204,
      "gridRef": "NH085714",
      "source": "Database of British and Irish Hills v18.4"
    },
    {
      "id": "dobih-1361",
      "dobihId": 1361,
      "name": "Beinn Bheag",
      "list": ["grahams", "marilyns"],
      "region": "Sunart and Ardgour",
      "heightM": 737.4,
      "heightFt": 2419,
      "lat": 56.716745,
      "lon": -5.409369,
      "gridRef": "NM914635",
      "source": "Database of British and Irish Hills v18.4"
    },
    {
      "id": "dobih-1431",
      "dobihId": 1431,
      "name": "Beinn Bheag",
      "list": ["grahams", "marilyns"],
      "region": "Loch Fyne to Bute and the Firth of Clyde",
      "heightM": 619.8,
      "heightFt": 2033,
      "lat": 56.094349,
      "lon": -5.014585,
      "gridRef": "NS125931",
      "source": "Database of British and Irish Hills v18.4"
    },
    {
      "id": "dobih-1463",
      "dobihId": 1463,
      "name": "Beinn Bheigier",
      "list": ["marilyns"],
      "region": "Islay",
      "heightM": 491,
      "heightFt": 1611,
      "lat": 55.73317,
      "lon": -6.095392,
      "gridRef": "NR429564",
      "source": "Database of British and Irish Hills v18.4"
    },
    {
      "id": "dobih-354",
      "dobihId": 354,
      "name": "Beinn Bheoil",
      "list": ["munros", "marilyns"],
      "region": "Loch Treig to Loch Ericht",
      "heightM": 1019,
      "heightFt": 3343,
      "lat": 56.813267,
      "lon": -4.430662,
      "gridRef": "NN517717",
      "source": "Database of British and Irish Hills v18.4"
    },
    {
      "id": "dobih-1422",
      "dobihId": 1422,
      "name": "Beinn Bheula",
      "list": ["corbetts", "marilyns"],
      "region": "Loch Fyne to Bute and the Firth of Clyde",
      "heightM": 779,
      "heightFt": 2556,
      "lat": 56.141833,
      "lon": -4.971465,
      "gridRef": "NS154983",
      "source": "Database of British and Irish Hills v18.4"
    },
    {
      "id": "dobih-1577",
      "dobihId": 1577,
      "name": "Beinn Bhragair",
      "list": ["marilyns"],
      "region": "Lewis and Nearby Islands",
      "heightM": 261.9,
      "heightFt": 859,
      "lat": 58.292669,
      "lon": -6.665952,
      "gridRef": "NB266432",
      "source": "Database of British and Irish Hills v18.4"
    },
    {
      "id": "dobih-98",
      "dobihId": 98,
      "name": "Beinn Bhreac",
      "list": ["grahams", "marilyns"],
      "region": "Loch Long to Loch Lomond",
      "heightM": 680.8,
      "heightFt": 2234,
      "lat": 56.163643,
      "lon": -4.704559,
      "gridRef": "NN321000",
      "source": "Database of British and Irish Hills v18.4"
    },
    {
      "id": "dobih-414",
      "dobihId": 414,
      "name": "Beinn Bhreac",
      "list": ["corbetts", "marilyns"],
      "region": "Glen Tromie to Glen Tilt",
      "heightM": 912.44,
      "heightFt": 2994,
      "lat": 56.916127,
      "lon": -3.86034,
      "gridRef": "NN868820",
      "source": "Database of British and Irish Hills v18.4"
    },
    {
      "id": "dobih-1234",
      "dobihId": 1234,
      "name": "Beinn Bhreac",
      "list": ["marilyns"],
      "region": "North Skye and Raasay",
      "heightM": 329,
      "heightFt": 1079,
      "lat": 57.484463,
      "lon": -6.584242,
      "gridRef": "NG253530",
      "source": "Database of British and Irish Hills v18.4"
    },
    {
      "id": "dobih-1272",
      "dobihId": 1272,
      "name": "Beinn Bhreac",
      "list": ["marilyns"],
      "region": "Minginish and the Cuillin Hills",
      "heightM": 448,
      "heightFt": 1470,
      "lat": 57.25594,
      "lon": -6.402899,
      "gridRef": "NG345269",
      "source": "Database of British and Irish Hills v18.4"
    },
    {
      "id": "dobih-1348",
      "dobihId": 1348,
      "name": "Beinn Bhreac",
      "list": ["marilyns"],
      "region": "Moidart and Ardnamurchan",
      "heightM": 240,
      "heightFt": 787,
      "lat": 56.777379,
      "lon": -5.796613,
      "gridRef": "NM681715",
      "source": "Database of British and Irish Hills v18.4"
    },
    {
      "id": "dobih-1385",
      "dobihId": 1385,
      "name": "Beinn Bhreac",
      "list": ["marilyns"],
      "region": "Oban to Loch Fyne",
      "heightM": 526,
      "heightFt": 1726,
      "lat": 56.243823,
      "lon": -5.184578,
      "gridRef": "NN027102",
      "source": "Database of British and Irish Hills v18.4"
    },
    {
      "id": "dobih-1456",
      "dobihId": 1456,
      "name": "Beinn Bhreac",
      "list": ["marilyns"],
      "region": "Jura, Scarba and Colonsay",
      "heightM": 468,
      "heightFt": 1535,
      "lat": 56.049667,
      "lon": -5.859568,
      "gridRef": "NR597908",
      "source": "Database of British and Irish Hills v18.4"
    },
    {
      "id": "dobih-1458",
      "dobihId": 1458,
      "name": "Beinn Bhreac",
      "list": ["marilyns"],
      "region": "Jura, Scarba and Colonsay",
      "heightM": 441,
      "heightFt": 1447,
      "lat": 55.930606,
      "lon": -5.950773,
      "gridRef": "NR533778",
      "source": "Database of British and Irish Hills v18.4"
    },
    {
      "id": "dobih-1477",
      "dobihId": 1477,
      "name": "Beinn Bhreac",
      "list": ["marilyns"],
      "region": "Arran and Holy Island",
      "heightM": 574.1,
      "heightFt": 1884,
      "lat": 55.659808,
      "lon": -5.271272,
      "gridRef": "NR943455",
      "source": "Database of British and Irish Hills v18.4"
    },
    {
      "id": "dobih-1584",
      "dobihId": 1584,
      "name": "Beinn Bhreac",
      "list": ["marilyns"],
      "region": "Lewis and Nearby Islands",
      "heightM": 191,
      "heightFt": 627,
      "lat": 58.022214,
      "lon": -6.393344,
      "gridRef": "NB406121",
      "source": "Database of British and Irish Hills v18.4"
    },
    {
      "id": "dobih-1077",
      "dobihId": 1077,
      "name": "Beinn Bhreac [Meall Dubh]",
      "list": ["grahams", "marilyns"],
      "region": "Loch Broom to Strath Oykel",
      "heightM": 666.3,
      "heightFt": 2186,
      "lat": 57.852083,
      "lon": -4.991524,
      "gridRef": "NH225886",
      "source": "Database of British and Irish Hills v18.4"
    },
    {
      "id": "dobih-266",
      "dobihId": 266,
      "name": "Beinn Bhreac-liath",
      "list": ["corbetts", "marilyns"],
      "region": "Glen Etive to Glen Lochy",
      "heightM": 802,
      "heightFt": 2631,
      "lat": 56.466716,
      "lon": -4.756524,
      "gridRef": "NN302339",
      "source": "Database of British and Irish Hills v18.4"
    },
    {
      "id": "dobih-538",
      "dobihId": 538,
      "name": "Beinn Bhrotain",
      "list": ["munros", "marilyns"],
      "region": "Cairngorms",
      "heightM": 1157,
      "heightFt": 3796,
      "lat": 57.009868,
      "lon": -3.723797,
      "gridRef": "NN954922",
      "source": "Database of British and Irish Hills v18.4"
    },
    {
      "id": "dobih-70",
      "dobihId": 70,
      "name": "Beinn Bhuidhe",
      "list": ["munros", "marilyns"],
      "region": "Inveraray to Crianlarich",
      "heightM": 948.5,
      "heightFt": 3112,
      "lat": 56.326686,
      "lon": -4.906709,
      "gridRef": "NN203187",
      "source": "Database of British and Irish Hills v18.4"
    },
    {
      "id": "dobih-749",
      "dobihId": 749,
      "name": "Beinn Bhuidhe",
      "list": ["corbetts", "marilyns"],
      "region": "Knoydart to Glen Kingie",
      "heightM": 855.4,
      "heightFt": 2806,
      "lat": 57.010102,
      "lon": -5.589145,
      "gridRef": "NM821967",
      "source": "Database of British and Irish Hills v18.4"
    },
    {
      "id": "dobih-1319",
      "dobihId": 1319,
      "name": "Beinn Bhuidhe",
      "list": ["marilyns"],
      "region": "Mull and Nearby Islands",
      "heightM": 413,
      "heightFt": 1355,
      "lat": 56.489798,
      "lon": -5.916267,
      "gridRef": "NM590399",
      "source": "Database of British and Irish Hills v18.4"
    },
    {
      "id": "dobih-38",
      "dobihId": 38,
      "name": "Beinn Chabhair",
      "list": ["munros", "marilyns"],
      "region": "Loch Lomond to Strathyre",
      "heightM": 932.2,
      "heightFt": 3058,
      "lat": 56.325779,
      "lon": -4.641476,
      "gridRef": "NN367179",
      "source": "Database of British and Irish Hills v18.4"
    },
    {
      "id": "dobih-152",
      "dobihId": 152,
      "name": "Beinn Challuim [Ben Challum]",
      "list": ["munros", "marilyns"],
      "region": "Glen Lyon to Glen Dochart & Loch Tay",
      "heightM": 1024.9,
      "heightFt": 3363,
      "lat": 56.454573,
      "lon": -4.619184,
      "gridRef": "NN386322",
      "source": "Database of British and Irish Hills v18.4"
    },
    {
      "id": "dobih-94",
      "dobihId": 94,
      "name": "Beinn Chaorach",
      "list": ["grahams", "marilyns"],
      "region": "Loch Long to Loch Lomond",
      "heightM": 713,
      "heightFt": 2339,
      "lat": 56.093338,
      "lon": -4.75444,
      "gridRef": "NS287923",
      "source": "Database of British and Irish Hills v18.4"
    },
    {
      "id": "dobih-173",
      "dobihId": 173,
      "name": "Beinn Chaorach",
      "list": ["corbetts", "marilyns"],
      "region": "Glen Lyon to Glen Dochart & Loch Tay",
      "heightM": 818,
      "heightFt": 2684,
      "lat": 56.458875,
      "lon": -4.664933,
      "gridRef": "NN358328",
      "source": "Database of British and Irish Hills v18.4"
    },
    {
      "id": "dobih-1387",
      "dobihId": 1387,
      "name": "Beinn Chapull",
      "list": ["marilyns"],
      "region": "Oban to Loch Fyne",
      "heightM": 515,
      "heightFt": 1690,
      "lat": 56.32379,
      "lon": -5.337353,
      "gridRef": "NM937196",
      "source": "Database of British and Irish Hills v18.4"
    },
    {
      "id": "dobih-1380",
      "dobihId": 1380,
      "name": "Beinn Chlaonleud",
      "list": ["marilyns"],
      "region": "Morvern and Kingairloch",
      "heightM": 479,
      "heightFt": 1572,
      "lat": 56.626151,
      "lon": -5.672596,
      "gridRef": "NM748542",
      "source": "Database of British and Irish Hills v18.4"
    },
    {
      "id": "dobih-1631",
      "dobihId": 1631,
      "name": "Beinn Chliad [Ben Cleit] [Ben Cliad]",
      "list": ["marilyns"],
      "region": "Barra to Barra Head",
      "heightM": 206,
      "heightFt": 676,
      "lat": 57.009799,
      "lon": -7.4749,
      "gridRef": "NF677042",
      "source": "Database of British and Irish Hills v18.4"
    },
    {
      "id": "dobih-1610",
      "dobihId": 1610,
      "name": "Beinn Choradail [Ben Corodale]",
      "list": ["marilyns"],
      "region": "North Uist, South Uist and Nearby Islands",
      "heightM": 525.7,
      "heightFt": 1725,
      "lat": 57.275241,
      "lon": -7.278909,
      "gridRef": "NF819328",
      "source": "Database of British and Irish Hills v18.4"
    },
    {
      "id": "dobih-1233",
      "dobihId": 1233,
      "name": "Beinn Chreagach",
      "list": ["marilyns"],
      "region": "North Skye and Raasay",
      "heightM": 326,
      "heightFt": 1070,
      "lat": 57.489802,
      "lon": -6.525682,
      "gridRef": "NG289534",
      "source": "Database of British and Irish Hills v18.4"
    },
    {
      "id": "dobih-1321",
      "dobihId": 1321,
      "name": "Beinn Chreagach",
      "list": ["marilyns"],
      "region": "Mull and Nearby Islands",
      "heightM": 378.5,
      "heightFt": 1242,
      "lat": 56.322532,
      "lon": -6.01282,
      "gridRef": "NM519216",
      "source": "Database of British and Irish Hills v18.4"
    },
    {
      "id": "dobih-1327",
      "dobihId": 1327,
      "name": "Beinn Chreagach",
      "list": ["marilyns"],
      "region": "Mull and Nearby Islands",
      "heightM": 313,
      "heightFt": 1027,
      "lat": 56.482128,
      "lon": -6.218893,
      "gridRef": "NM403402",
      "source": "Database of British and Irish Hills v18.4"
    },
    {
      "id": "dobih-80",
      "dobihId": 80,
      "name": "Beinn Chuirn",
      "list": ["corbetts", "marilyns"],
      "region": "Inveraray to Crianlarich",
      "heightM": 880,
      "heightFt": 2887,
      "lat": 56.423887,
      "lon": -4.789867,
      "gridRef": "NN280292",
      "source": "Database of British and Irish Hills v18.4"
    },
    {
      "id": "dobih-225",
      "dobihId": 225,
      "name": "Beinn Churalain",
      "list": ["marilyns"],
      "region": "Loch Linnhe to Loch Etive",
      "heightM": 549,
      "heightFt": 1801,
      "lat": 56.563951,
      "lon": -5.272195,
      "gridRef": "NM990461",
      "source": "Database of British and Irish Hills v18.4"
    },
    {
      "id": "dobih-725",
      "dobihId": 725,
      "name": "Beinn Clachach",
      "list": ["grahams", "marilyns"],
      "region": "Glen Shiel to Loch Hourn and Loch Quoich",
      "heightM": 642.3,
      "heightFt": 2107,
      "lat": 57.140331,
      "lon": -5.495625,
      "gridRef": "NG885109",
      "source": "Database of British and Irish Hills v18.4"
    },
    {
      "id": "dobih-920",
      "dobihId": 920,
      "name": "Beinn Conchra",
      "list": ["marilyns"],
      "region": "Kyle of Lochalsh to Garve",
      "heightM": 453,
      "heightFt": 1486,
      "lat": 57.304041,
      "lon": -5.509084,
      "gridRef": "NG887291",
      "source": "Database of British and Irish Hills v18.4"
    },
    {
      "id": "dobih-986",
      "dobihId": 986,
      "name": "Beinn Damh",
      "list": ["corbetts", "marilyns"],
      "region": "Applecross to Achnasheen",
      "heightM": 902.4,
      "heightFt": 2961,
      "lat": 57.492828,
      "lon": -5.518164,
      "gridRef": "NG892501",
      "source": "Database of British and Irish Hills v18.4"
    },
    {
      "id": "dobih-86",
      "dobihId": 86,
      "name": "Beinn Damhain",
      "list": ["grahams", "marilyns"],
      "region": "Inveraray to Crianlarich",
      "heightM": 684.2,
      "heightFt": 2245,
      "lat": 56.316818,
      "lon": -4.779041,
      "gridRef": "NN282172",
      "source": "Database of British and Irish Hills v18.4"
    },
    {
      "id": "dobih-62",
      "dobihId": 62,
      "name": "Beinn Dearg",
      "list": ["marilyns"],
      "region": "Loch Lomond to Strathyre",
      "heightM": 427,
      "heightFt": 1401,
      "lat": 56.205721,
      "lon": -4.276572,
      "gridRef": "NN588037",
      "source": "Database of British and Irish Hills v18.4"
    },
    {
      "id": "dobih-134",
      "dobihId": 134,
      "name": "Beinn Dearg",
      "list": ["corbetts", "marilyns"],
      "region": "Loch Rannoch to Glen Lyon",
      "heightM": 830,
      "heightFt": 2723,
      "lat": 56.61893,
      "lon": -4.268971,
      "gridRef": "NN608497",
      "source": "Database of British and Irish Hills v18.4"
    },
    {
      "id": "dobih-406",
      "dobihId": 406,
      "name": "Beinn Dearg",
      "list": ["munros", "marilyns"],
      "region": "Glen Tromie to Glen Tilt",
      "heightM": 1008.7,
      "heightFt": 3309,
      "lat": 56.877346,
      "lon": -3.883719,
      "gridRef": "NN852778",
      "source": "Database of British and Irish Hills v18.4"
    },
    {
      "id": "dobih-970",
      "dobihId": 970,
      "name": "Beinn Dearg",
      "list": ["corbetts", "marilyns"],
      "region": "Loch Torridon to Loch Maree",
      "heightM": 913.7,
      "heightFt": 2998,
      "lat": 57.588186,
      "lon": -5.522872,
      "gridRef": "NG895608",
      "source": "Database of British and Irish Hills v18.4"
    },
    {
      "id": "dobih-1062",
      "dobihId": 1062,
      "name": "Beinn Dearg",
      "list": ["munros", "marilyns"],
      "region": "Loch Broom to Strath Oykel",
      "heightM": 1084,
      "heightFt": 3556,
      "lat": 57.78635,
      "lon": -4.929557,
      "gridRef": "NH259811",
      "source": "Database of British and Irish Hills v18.4"
    },
    {
      "id": "dobih-1117",
      "dobihId": 1117,
      "name": "Beinn Dearg",
      "list": ["marilyns"],
      "region": "Cape Wrath Peninsula",
      "heightM": 423.8,
      "heightFt": 1390,
      "lat": 58.546297,
      "lon": -4.957689,
      "gridRef": "NC279658",
      "source": "Database of British and Irish Hills v18.4"
    },
    {
      "id": "dobih-1028",
      "dobihId": 1028,
      "name": "Beinn Dearg Bheag",
      "list": ["corbetts", "marilyns"],
      "region": "Loch Maree to Loch Broom",
      "heightM": 817.9,
      "heightFt": 2683,
      "lat": 57.775985,
      "lon": -5.331426,
      "gridRef": "NH019811",
      "source": "Database of British and Irish Hills v18.4"
    },
    {
      "id": "dobih-1265",
      "dobihId": 1265,
      "name": "Beinn Dearg Mhor",
      "list": ["grahams", "marilyns"],
      "region": "Minginish and the Cuillin Hills",
      "heightM": 733.5,
      "heightFt": 2406,
      "lat": 57.279534,
      "lon": -6.115814,
      "gridRef": "NG520284",
      "source": "Database of British and Irish Hills v18.4"
    },
    {
      "id": "dobih-1282",
      "dobihId": 1282,
      "name": "Beinn Dearg Mhor",
      "list": ["grahams", "marilyns"],
      "region": "South-East Skye and Scalpay",
      "heightM": 709.3,
      "heightFt": 2327,
      "lat": 57.232593,
      "lon": -5.998762,
      "gridRef": "NG587228",
      "source": "Database of British and Irish Hills v18.4"
    },
    {
      "id": "dobih-1025",
      "dobihId": 1025,
      "name": "Beinn Dearg Mor",
      "list": ["corbetts", "marilyns"],
      "region": "Loch Maree to Loch Broom",
      "heightM": 906.28,
      "heightFt": 2973,
      "lat": 57.765796,
      "lon": -5.309938,
      "gridRef": "NH032799",
      "source": "Database of British and Irish Hills v18.4"
    },
    {
      "id": "dobih-1168",
      "dobihId": 1168,
      "name": "Beinn Dhorain",
      "list": ["grahams", "marilyns"],
      "region": "Altnaharra to Dornoch",
      "heightM": 628.3,
      "heightFt": 2061,
      "lat": 58.116757,
      "lon": -3.825593,
      "gridRef": "NC925156",
      "source": "Database of British and Irish Hills v18.4"
    },
    {
      "id": "dobih-1595",
      "dobihId": 1595,
      "name": "Beinn Dhubh",
      "list": ["marilyns"],
      "region": "Harris and Nearby Islands",
      "heightM": 506,
      "heightFt": 1660,
      "lat": 57.899864,
      "lon": -6.914232,
      "gridRef": "NB089006",
      "source": "Database of British and Irish Hills v18.4"
    },
    {
      "id": "dobih-1135",
      "dobihId": 1135,
      "name": "Beinn Direach",
      "list": ["grahams", "marilyns"],
      "region": "Durness to Loch Shin",
      "heightM": 688.9,
      "heightFt": 2260,
      "lat": 58.302109,
      "lon": -4.721409,
      "gridRef": "NC406380",
      "source": "Database of British and Irish Hills v18.4"
    },
    {
      "id": "dobih-1176",
      "dobihId": 1176,
      "name": "Beinn Domhnaill",
      "list": ["marilyns"],
      "region": "Altnaharra to Dornoch",
      "heightM": 349.1,
      "heightFt": 1145,
      "lat": 57.939791,
      "lon": -4.231917,
      "gridRef": "NH679966",
      "source": "Database of British and Irish Hills v18.4"
    },
    {
      "id": "dobih-272",
      "dobihId": 272,
      "name": "Beinn Donachain",
      "list": ["grahams", "marilyns"],
      "region": "Glen Etive to Glen Lochy",
      "heightM": 651.4,
      "heightFt": 2137,
      "lat": 56.442594,
      "lon": -4.923232,
      "gridRef": "NN198316",
      "source": "Database of British and Irish Hills v18.4"
    },
    {
      "id": "dobih-226",
      "dobihId": 226,
      "name": "Beinn Donn",
      "list": ["marilyns"],
      "region": "Loch Linnhe to Loch Etive",
      "heightM": 473,
      "heightFt": 1552,
      "lat": 56.57689,
      "lon": -5.32089,
      "gridRef": "NM961477",
      "source": "Database of British and Irish Hills v18.4"
    },
    {
      "id": "dobih-105",
      "dobihId": 105,
      "name": "Beinn Dorain",
      "list": ["munros", "marilyns"],
      "region": "Loch Rannoch to Glen Lyon",
      "heightM": 1076,
      "heightFt": 3530,
      "lat": 56.50287,
      "lon": -4.722173,
      "gridRef": "NN325378",
      "source": "Database of British and Irish Hills v18.4"
    },
    {
      "id": "dobih-911",
      "dobihId": 911,
      "name": "Beinn Dronaig",
      "list": ["corbetts", "marilyns"],
      "region": "Kyle of Lochalsh to Garve",
      "heightM": 796.8,
      "heightFt": 2614,
      "lat": 57.391571,
      "lon": -5.267956,
      "gridRef": "NH037381",
      "source": "Database of British and Irish Hills v18.4"
    },
    {
      "id": "dobih-61",
      "dobihId": 61,
      "name": "Beinn Dubh",
      "list": ["marilyns"],
      "region": "Loch Lomond to Strathyre",
      "heightM": 508,
      "heightFt": 1667,
      "lat": 56.206333,
      "lon": -4.573894,
      "gridRef": "NN404045",
      "source": "Database of British and Irish Hills v18.4"
    },
    {
      "id": "dobih-1390",
      "dobihId": 1390,
      "name": "Beinn Dubh Airigh",
      "list": ["marilyns"],
      "region": "Oban to Loch Fyne",
      "heightM": 459,
      "heightFt": 1506,
      "lat": 56.180527,
      "lon": -5.290823,
      "gridRef": "NM958035",
      "source": "Database of British and Irish Hills v18.4"
    },
    {
      "id": "dobih-948",
      "dobihId": 948,
      "name": "Beinn Dubh an Iaruinn",
      "list": ["marilyns"],
      "region": "Killilan to Inverness",
      "heightM": 591,
      "heightFt": 1939,
      "lat": 57.406944,
      "lon": -5.027427,
      "gridRef": "NH182392",
      "source": "Database of British and Irish Hills v18.4"
    },
    {
      "id": "dobih-1159",
      "dobihId": 1159,
      "name": "Beinn Dubhain",
      "list": ["marilyns"],
      "region": "Tongue to Wick and Helmsdale",
      "heightM": 417,
      "heightFt": 1368,
      "lat": 58.162465,
      "lon": -3.808641,
      "gridRef": "NC936207",
      "source": "Database of British and Irish Hills v18.4"
    },
    {
      "id": "dobih-69",
      "dobihId": 69,
      "name": "Beinn Dubhchraig",
      "list": ["munros", "marilyns"],
      "region": "Inveraray to Crianlarich",
      "heightM": 978.6,
      "heightFt": 3211,
      "lat": 56.391295,
      "lon": -4.743193,
      "gridRef": "NN307254",
      "source": "Database of British and Irish Hills v18.4"
    },
    {
      "id": "dobih-223",
      "dobihId": 223,
      "name": "Beinn Duirinnis",
      "list": ["marilyns"],
      "region": "Loch Linnhe to Loch Etive",
      "heightM": 556,
      "heightFt": 1824,
      "lat": 56.463336,
      "lon": -5.213774,
      "gridRef": "NN021347",
      "source": "Database of British and Irish Hills v18.4"
    },
    {
      "id": "dobih-19",
      "dobihId": 19,
      "name": "Beinn Each",
      "list": ["corbetts", "marilyns"],
      "region": "Strathyre to Strathallan",
      "heightM": 811.2,
      "heightFt": 2661,
      "lat": 56.313957,
      "lon": -4.262183,
      "gridRef": "NN601158",
      "source": "Database of British and Irish Hills v18.4"
    },
    {
      "id": "dobih-96",
      "dobihId": 96,
      "name": "Beinn Eich",
      "list": ["grahams", "marilyns"],
      "region": "Loch Long to Loch Lomond",
      "heightM": 701.5,
      "heightFt": 2302,
      "lat": 56.114637,
      "lon": -4.732361,
      "gridRef": "NS302946",
      "source": "Database of British and Irish Hills v18.4"
    },
    {
      "id": "dobih-955",
      "dobihId": 955,
      "name": "Beinn Eighe - Ruadh-stac Mor",
      "list": ["munros", "marilyns"],
      "region": "Loch Torridon to Loch Maree",
      "heightM": 1010,
      "heightFt": 3314,
      "lat": 57.593735,
      "lon": -5.429454,
      "gridRef": "NG951611",
      "source": "Database of British and Irish Hills v18.4"
    },
    {
      "id": "dobih-956",
      "dobihId": 956,
      "name": "Beinn Eighe - Spidean Coire nan Clach",
      "list": ["munros", "marilyns"],
      "region": "Loch Torridon to Loch Maree",
      "heightM": 993,
      "heightFt": 3258,
      "lat": 57.582098,
      "lon": -5.403706,
      "gridRef": "NG966597",
      "source": "Database of British and Irish Hills v18.4"
    },
    {
      "id": "dobih-1081",
      "dobihId": 1081,
      "name": "Beinn Eilideach",
      "list": ["marilyns"],
      "region": "Loch Broom to Strath Oykel",
      "heightM": 559,
      "heightFt": 1834,
      "lat": 57.88591,
      "lon": -5.087313,
      "gridRef": "NH170926",
      "source": "Database of British and Irish Hills v18.4"
    },
    {
      "id": "dobih-1073",
      "dobihId": 1073,
      "name": "Beinn Enaiglair",
      "list": ["corbetts", "marilyns"],
      "region": "Loch Broom to Strath Oykel",
      "heightM": 890,
      "heightFt": 2920,
      "lat": 57.779101,
      "lon": -4.986727,
      "gridRef": "NH225805",
      "source": "Database of British and Irish Hills v18.4"
    },
    {
      "id": "dobih-249",
      "dobihId": 249,
      "name": "Beinn Eunaich",
      "list": ["munros", "marilyns"],
      "region": "Glen Etive to Glen Lochy",
      "heightM": 989,
      "heightFt": 3245,
      "lat": 56.450352,
      "lon": -5.026639,
      "gridRef": "NN135327",
      "source": "Database of British and Irish Hills v18.4"
    },
    {
      "id": "dobih-823",
      "dobihId": 823,
      "name": "Beinn Fhada",
      "list": ["munros", "marilyns"],
      "region": "Loch Duich to Cannich",
      "heightM": 1031.9,
      "heightFt": 3385,
      "lat": 57.221002,
      "lon": -5.283519,
      "gridRef": "NH018192",
      "source": "Database of British and Irish Hills v18.4"
    },
    {
      "id": "dobih-1308",
      "dobihId": 1308,
      "name": "Beinn Fhada",
      "list": ["grahams", "marilyns"],
      "region": "Mull and Nearby Islands",
      "heightM": 702,
      "heightFt": 2303,
      "lat": 56.441972,
      "lon": -5.992496,
      "gridRef": "NM540349",
      "source": "Database of British and Irish Hills v18.4"
    },
    {
      "id": "dobih-201",
      "dobihId": 201,
      "name": "Beinn Fhionnlaidh",
      "list": ["munros", "marilyns"],
      "region": "Loch Linnhe to Loch Etive",
      "heightM": 959,
      "heightFt": 3146,
      "lat": 56.600978,
      "lon": -5.104749,
      "gridRef": "NN095497",
      "source": "Database of British and Irish Hills v18.4"
    },
    {
      "id": "dobih-826",
      "dobihId": 826,
      "name": "Beinn Fhionnlaidh",
      "list": ["munros", "marilyns"],
      "region": "Loch Duich to Cannich",
      "heightM": 1004.8,
      "heightFt": 3297,
      "lat": 57.305977,
      "lon": -5.129909,
      "gridRef": "NH115282",
      "source": "Database of British and Irish Hills v18.4"
    },
    {
      "id": "dobih-1339",
      "dobihId": 1339,
      "name": "Beinn Gaire",
      "list": ["grahams", "marilyns"],
      "region": "Moidart and Ardnamurchan",
      "heightM": 666.1,
      "heightFt": 2185,
      "lat": 56.812364,
      "lon": -5.636833,
      "gridRef": "NM781748",
      "source": "Database of British and Irish Hills v18.4"
    },
    {
      "id": "dobih-90",
      "dobihId": 90,
      "name": "Beinn Ghlas",
      "list": ["marilyns"],
      "region": "Inveraray to Crianlarich",
      "heightM": 551.2,
      "heightFt": 1808,
      "lat": 56.31819,
      "lon": -5.022766,
      "gridRef": "NN131180",
      "source": "Database of British and Irish Hills v18.4"
    },
    {
      "id": "dobih-1386",
      "dobihId": 1386,
      "name": "Beinn Ghlas",
      "list": ["marilyns"],
      "region": "Oban to Loch Fyne",
      "heightM": 516.4,
      "heightFt": 1694,
      "lat": 56.381714,
      "lon": -5.309851,
      "gridRef": "NM957259",
      "source": "Database of British and Irish Hills v18.4"
    },
    {
      "id": "dobih-1392",
      "dobihId": 1392,
      "name": "Beinn Ghlas",
      "list": ["marilyns"],
      "region": "Oban to Loch Fyne",
      "heightM": 420,
      "heightFt": 1378,
      "lat": 56.143721,
      "lon": -5.238156,
      "gridRef": "NR989992",
      "source": "Database of British and Irish Hills v18.4"
    },
    {
      "id": "dobih-1035",
      "dobihId": 1035,
      "name": "Beinn Ghobhlach",
      "list": ["grahams", "marilyns"],
      "region": "Loch Maree to Loch Broom",
      "heightM": 634.9,
      "heightFt": 2083,
      "lat": 57.895968,
      "lon": -5.282466,
      "gridRef": "NH055943",
      "source": "Database of British and Irish Hills v18.4"
    },
    {
      "id": "dobih-1416",
      "dobihId": 1416,
      "name": "Beinn Ghuilean",
      "list": ["marilyns"],
      "region": "Knapdale and Kintyre",
      "heightM": 354,
      "heightFt": 1161,
      "lat": 55.394953,
      "lon": -5.587232,
      "gridRef": "NR729170",
      "source": "Database of British and Irish Hills v18.4"
    },
    {
      "id": "dobih-677",
      "dobihId": 677,
      "name": "Beinn Iaruinn",
      "list": ["corbetts", "marilyns"],
      "region": "Loch Lochy to Loch Laggan",
      "heightM": 804.3,
      "heightFt": 2639,
      "lat": 56.970137,
      "lon": -4.803168,
      "gridRef": "NN296900",
      "source": "Database of British and Irish Hills v18.4"
    },
    {
      "id": "dobih-68",
      "dobihId": 68,
      "name": "Beinn Ime",
      "list": ["munros", "marilyns"],
      "region": "Inveraray to Crianlarich",
      "heightM": 1012.2,
      "heightFt": 3321,
      "lat": 56.236803,
      "lon": -4.817141,
      "gridRef": "NN255084",
      "source": "Database of British and Irish Hills v18.4"
    },
    {
      "id": "dobih-425",
      "dobihId": 425,
      "name": "Beinn Iutharn Mhor",
      "list": ["munros", "marilyns"],
      "region": "Pitlochry to Braemar & Blairgowrie",
      "heightM": 1045,
      "heightFt": 3428,
      "lat": 56.894994,
      "lon": -3.568229,
      "gridRef": "NO045792",
      "source": "Database of British and Irish Hills v18.4"
    },
    {
      "id": "dobih-1444",
      "dobihId": 1444,
      "name": "Beinn Lagan",
      "list": ["marilyns"],
      "region": "Loch Fyne to Bute and the Firth of Clyde",
      "heightM": 465,
      "heightFt": 1526,
      "lat": 56.152449,
      "lon": -5.028478,
      "gridRef": "NS119996",
      "source": "Database of British and Irish Hills v18.4"
    },
    {
      "id": "dobih-1026",
      "dobihId": 1026,
      "name": "Beinn Lair",
      "list": ["corbetts", "marilyns"],
      "region": "Loch Maree to Loch Broom",
      "heightM": 859,
      "heightFt": 2818,
      "lat": 57.703833,
      "lon": -5.389221,
      "gridRef": "NG981732",
      "source": "Database of British and Irish Hills v18.4"
    },
    {
      "id": "dobih-1370",
      "dobihId": 1370,
      "name": "Beinn Leamhain",
      "list": ["marilyns"],
      "region": "Sunart and Ardgour",
      "heightM": 508,
      "heightFt": 1667,
      "lat": 56.707501,
      "lon": -5.338822,
      "gridRef": "NM957622",
      "source": "Database of British and Irish Hills v18.4"
    },
    {
      "id": "dobih-1189",
      "dobihId": 1189,
      "name": "Beinn Leoid",
      "list": ["corbetts", "marilyns"],
      "region": "Scourie to Lairg",
      "heightM": 792,
      "heightFt": 2598,
      "lat": 58.222005,
      "lon": -4.861628,
      "gridRef": "NC320294",
      "source": "Database of British and Irish Hills v18.4"
    },
    {
      "id": "dobih-983",
      "dobihId": 983,
      "name": "Beinn Liath Mhor",
      "list": ["munros", "marilyns"],
      "region": "Applecross to Achnasheen",
      "heightM": 926,
      "heightFt": 3038,
      "lat": 57.512074,
      "lon": -5.400617,
      "gridRef": "NG964519",
      "source": "Database of British and Irish Hills v18.4"
    },
    {
      "id": "dobih-1054",
      "dobihId": 1054,
      "name": "Beinn Liath Mhor a' Ghiubhais Li [Beinn Liath Mhor a' Ghiuthais]",
      "list": ["corbetts", "marilyns"],
      "region": "The Fannaichs",
      "heightM": 766,
      "heightFt": 2513,
      "lat": 57.698655,
      "lon": -4.886379,
      "gridRef": "NH280713",
      "source": "Database of British and Irish Hills v18.4"
    },
    {
      "id": "dobih-1426",
      "dobihId": 1426,
      "name": "Beinn Lochain",
      "list": ["grahams", "marilyns"],
      "region": "Loch Fyne to Bute and the Firth of Clyde",
      "heightM": 702.9,
      "heightFt": 2306,
      "lat": 56.162687,
      "lon": -4.964426,
      "gridRef": "NN160006",
      "source": "Database of British and Irish Hills v18.4"
    },
    {
      "id": "dobih-229",
      "dobihId": 229,
      "name": "Beinn Lora",
      "list": ["marilyns"],
      "region": "Loch Linnhe to Loch Etive",
      "heightM": 308,
      "heightFt": 1010,
      "lat": 56.485677,
      "lon": -5.380814,
      "gridRef": "NM919377",
      "source": "Database of British and Irish Hills v18.4"
    },
    {
      "id": "dobih-81",
      "dobihId": 81,
      "name": "Beinn Luibhean",
      "list": ["corbetts", "marilyns"],
      "region": "Inveraray to Crianlarich",
      "heightM": 859.7,
      "heightFt": 2821,
      "lat": 56.23124,
      "lon": -4.83634,
      "gridRef": "NN242079",
      "source": "Database of British and Irish Hills v18.4"
    },
    {
      "id": "dobih-1172",
      "dobihId": 1172,
      "name": "Beinn Lunndaidh",
      "list": ["marilyns"],
      "region": "Altnaharra to Dornoch",
      "heightM": 446,
      "heightFt": 1463,
      "lat": 57.990631,
      "lon": -4.046371,
      "gridRef": "NC791019",
      "source": "Database of British and Irish Hills v18.4"
    },
    {
      "id": "dobih-211",
      "dobihId": 211,
      "name": "Beinn Maol Chaluim",
      "list": ["corbetts", "marilyns"],
      "region": "Loch Linnhe to Loch Etive",
      "heightM": 906.3,
      "heightFt": 2973,
      "lat": 56.627853,
      "lon": -5.041952,
      "gridRef": "NN134525",
      "source": "Database of British and Irish Hills v18.4"
    },
    {
      "id": "dobih-122",
      "dobihId": 122,
      "name": "Beinn Mhanach",
      "list": ["munros", "marilyns"],
      "region": "Loch Rannoch to Glen Lyon",
      "heightM": 952.5,
      "heightFt": 3125,
      "lat": 56.534032,
      "lon": -4.646042,
      "gridRef": "NN373411",
      "source": "Database of British and Irish Hills v18.4"
    },
    {
      "id": "dobih-1570",
      "dobihId": 1570,
      "name": "Beinn Mheadhanach [Beinn Mheadhonach]",
      "list": ["marilyns"],
      "region": "Lewis and Nearby Islands",
      "heightM": 397,
      "heightFt": 1302,
      "lat": 58.105335,
      "lon": -6.940955,
      "gridRef": "NB090235",
      "source": "Database of British and Irish Hills v18.4"
    },
    {
      "id": "dobih-531",
      "dobihId": 531,
      "name": "Beinn Mheadhoin",
      "list": ["munros", "marilyns"],
      "region": "Cairngorms",
      "heightM": 1182.9,
      "heightFt": 3881,
      "lat": 57.095849,
      "lon": -3.611464,
      "gridRef": "NJ024016",
      "source": "Database of British and Irish Hills v18.4"
    },
    {
      "id": "dobih-647",
      "dobihId": 647,
      "name": "Beinn Mheadhoin",
      "list": ["marilyns"],
      "region": "Glen Albyn and the Monadh Liath",
      "heightM": 555.2,
      "heightFt": 1822,
      "lat": 57.262503,
      "lon": -4.315873,
      "gridRef": "NH604214",
      "source": "Database of British and Irish Hills v18.4"
    },
    {
      "id": "dobih-915",
      "dobihId": 915,
      "name": "Beinn Mheadhoin",
      "list": ["grahams", "marilyns"],
      "region": "Kyle of Lochalsh to Garve",
      "heightM": 664.3,
      "heightFt": 2179,
      "lat": 57.486587,
      "lon": -4.906348,
      "gridRef": "NH258477",
      "source": "Database of British and Irish Hills v18.4"
    },
    {
      "id": "dobih-1375",
      "dobihId": 1375,
      "name": "Beinn Mheadhoin",
      "list": ["grahams", "marilyns"],
      "region": "Morvern and Kingairloch",
      "heightM": 739,
      "heightFt": 2425,
      "lat": 56.603071,
      "lon": -5.587347,
      "gridRef": "NM799514",
      "source": "Database of British and Irish Hills v18.4"
    },
    {
      "id": "dobih-217",
      "dobihId": 217,
      "name": "Beinn Mheadhonach",
      "list": ["grahams", "marilyns"],
      "region": "Loch Linnhe to Loch Etive",
      "heightM": 715,
      "heightFt": 2346,
      "lat": 56.482385,
      "lon": -5.217238,
      "gridRef": "NN019368",
      "source": "Database of British and Irish Hills v18.4"
    },
    {
      "id": "dobih-222",
      "dobihId": 222,
      "name": "Beinn Mheadhonach",
      "list": ["marilyns"],
      "region": "Loch Linnhe to Loch Etive",
      "heightM": 589,
      "heightFt": 1932,
      "lat": 56.543422,
      "lon": -5.150379,
      "gridRef": "NN064434",
      "source": "Database of British and Irish Hills v18.4"
    },
    {
      "id": "dobih-415",
      "dobihId": 415,
      "name": "Beinn Mheadhonach",
      "list": ["corbetts", "marilyns"],
      "region": "Glen Tromie to Glen Tilt",
      "heightM": 900.9,
      "heightFt": 2956,
      "lat": 56.86094,
      "lon": -3.83844,
      "gridRef": "NN880758",
      "source": "Database of British and Irish Hills v18.4"
    },
    {
      "id": "dobih-1169",
      "dobihId": 1169,
      "name": "Beinn Mhealaich",
      "list": ["marilyns"],
      "region": "Altnaharra to Dornoch",
      "heightM": 592,
      "heightFt": 1942,
      "lat": 58.11141,
      "lon": -3.765095,
      "gridRef": "NC960149",
      "source": "Database of British and Irish Hills v18.4"
    },
    {
      "id": "dobih-727",
      "dobihId": 727,
      "name": "Beinn Mhialairigh",
      "list": ["marilyns"],
      "region": "Glen Shiel to Loch Hourn and Loch Quoich",
      "heightM": 548,
      "heightFt": 1798,
      "lat": 57.153684,
      "lon": -5.638905,
      "gridRef": "NG800128",
      "source": "Database of British and Irish Hills v18.4"
    },
    {
      "id": "dobih-1337",
      "dobihId": 1337,
      "name": "Beinn Mhic Cedidh",
      "list": ["corbetts", "marilyns"],
      "region": "Moidart and Ardnamurchan",
      "heightM": 783,
      "heightFt": 2569,
      "lat": 56.849855,
      "lon": -5.563042,
      "gridRef": "NM828788",
      "source": "Database of British and Irish Hills v18.4"
    },
    {
      "id": "dobih-264",
      "dobihId": 264,
      "name": "Beinn Mhic Chasgaig",
      "list": ["corbetts", "marilyns"],
      "region": "Glen Etive to Glen Lochy",
      "heightM": 864,
      "heightFt": 2835,
      "lat": 56.610061,
      "lon": -4.899477,
      "gridRef": "NN221502",
      "source": "Database of British and Irish Hills v18.4"
    },
    {
      "id": "dobih-267",
      "dobihId": 267,
      "name": "Beinn Mhic Mhonaidh",
      "list": ["corbetts", "marilyns"],
      "region": "Glen Etive to Glen Lochy",
      "heightM": 794.8,
      "heightFt": 2608,
      "lat": 56.473069,
      "lon": -4.909725,
      "gridRef": "NN208350",
      "source": "Database of British and Irish Hills v18.4"
    },
    {
      "id": "dobih-397",
      "dobihId": 397,
      "name": "Beinn Mholach",
      "list": ["corbetts", "marilyns"],
      "region": "Loch Ericht to Glen Tromie & Glen Garry",
      "heightM": 841.8,
      "heightFt": 2762,
      "lat": 56.759525,
      "lon": -4.3121,
      "gridRef": "NN587654",
      "source": "Database of British and Irish Hills v18.4"
    },
    {
      "id": "dobih-1575",
      "dobihId": 1575,
      "name": "Beinn Mholach",
      "list": ["marilyns"],
      "region": "Lewis and Nearby Islands",
      "heightM": 292,
      "heightFt": 958,
      "lat": 58.257396,
      "lon": -6.50979,
      "gridRef": "NB355387",
      "source": "Database of British and Irish Hills v18.4"
    },
    {
      "id": "dobih-616",
      "dobihId": 616,
      "name": "Beinn Mhor",
      "list": ["marilyns"],
      "region": "Inverness to Strathspey",
      "heightM": 471,
      "heightFt": 1545,
      "lat": 57.332291,
      "lon": -3.673103,
      "gridRef": "NH993281",
      "source": "Database of British and Irish Hills v18.4"
    },
    {
      "id": "dobih-1404",
      "dobihId": 1404,
      "name": "Beinn Mhor",
      "list": ["marilyns"],
      "region": "Oban to Loch Fyne",
      "heightM": 194,
      "heightFt": 636,
      "lat": 56.335301,
      "lon": -5.56332,
      "gridRef": "NM798215",
      "source": "Database of British and Irish Hills v18.4"
    },
    {
      "id": "dobih-1424",
      "dobihId": 1424,
      "name": "Beinn Mhor",
      "list": ["grahams", "marilyns"],
      "region": "Loch Fyne to Bute and the Firth of Clyde",
      "heightM": 741.5,
      "heightFt": 2433,
      "lat": 56.072604,
      "lon": -5.041639,
      "gridRef": "NS107908",
      "source": "Database of British and Irish Hills v18.4"
    },
    {
      "id": "dobih-1471",
      "dobihId": 1471,
      "name": "Beinn Mhor",
      "list": ["marilyns"],
      "region": "Islay",
      "heightM": 202,
      "heightFt": 663,
      "lat": 55.582427,
      "lon": -6.294288,
      "gridRef": "NR294404",
      "source": "Database of British and Irish Hills v18.4"
    },
    {
      "id": "dobih-1560",
      "dobihId": 1560,
      "name": "Beinn Mhor",
      "list": ["marilyns"],
      "region": "Lewis and Nearby Islands",
      "heightM": 572,
      "heightFt": 1877,
      "lat": 57.989997,
      "lon": -6.647531,
      "gridRef": "NB254095",
      "source": "Database of British and Irish Hills v18.4"
    },
    {
      "id": "dobih-1608",
      "dobihId": 1608,
      "name": "Beinn Mhor",
      "list": ["grahams", "marilyns"],
      "region": "North Uist, South Uist and Nearby Islands",
      "heightM": 620.5,
      "heightFt": 2036,
      "lat": 57.25875,
      "lon": -7.295043,
      "gridRef": "NF808311",
      "source": "Database of British and Irish Hills v18.4"
    },
    {
      "id": "dobih-1622",
      "dobihId": 1622,
      "name": "Beinn Mhor",
      "list": ["marilyns"],
      "region": "North Uist, South Uist and Nearby Islands",
      "heightM": 190,
      "heightFt": 623,
      "lat": 57.668073,
      "lon": -7.204528,
      "gridRef": "NF897761",
      "source": "Database of British and Irish Hills v18.4"
    },
    {
      "id": "dobih-218",
      "dobihId": 218,
      "name": "Beinn Molurgainn",
      "list": ["grahams", "marilyns"],
      "region": "Loch Linnhe to Loch Etive",
      "heightM": 688.3,
      "heightFt": 2258,
      "lat": 56.510851,
      "lon": -5.220187,
      "gridRef": "NN019400",
      "source": "Database of British and Irish Hills v18.4"
    },
    {
      "id": "dobih-753",
      "dobihId": 753,
      "name": "Beinn na Caillich",
      "list": ["corbetts", "marilyns"],
      "region": "Knoydart to Glen Kingie",
      "heightM": 785,
      "heightFt": 2575,
      "lat": 57.098269,
      "lon": -5.640323,
      "gridRef": "NG795066",
      "source": "Database of British and Irish Hills v18.4"
    },
    {
      "id": "dobih-1280",
      "dobihId": 1280,
      "name": "Beinn na Caillich",
      "list": ["grahams", "marilyns"],
      "region": "South-East Skye and Scalpay",
      "heightM": 732.1,
      "heightFt": 2402,
      "lat": 57.237269,
      "lon": -5.976682,
      "gridRef": "NG601232",
      "source": "Database of British and Irish Hills v18.4"
    },
    {
      "id": "dobih-1281",
      "dobihId": 1281,
      "name": "Beinn na Caillich",
      "list": ["grahams", "marilyns"],
      "region": "South-East Skye and Scalpay",
      "heightM": 731.4,
      "heightFt": 2400,
      "lat": 57.242947,
      "lon": -5.69691,
      "gridRef": "NG770229",
      "source": "Database of British and Irish Hills v18.4"
    },
    {
      "id": "dobih-1376",
      "dobihId": 1376,
      "name": "Beinn na Cille",
      "list": ["grahams", "marilyns"],
      "region": "Morvern and Kingairloch",
      "heightM": 652,
      "heightFt": 2139,
      "lat": 56.630469,
      "lon": -5.500508,
      "gridRef": "NM853542",
      "source": "Database of British and Irish Hills v18.4"
    },
    {
      "id": "dobih-335",
      "dobihId": 335,
      "name": "Beinn na Cloiche",
      "list": ["grahams", "marilyns"],
      "region": "Fort William to Loch Treig & Loch Leven",
      "heightM": 645.1,
      "heightFt": 2116,
      "lat": 56.743775,
      "lon": -4.806398,
      "gridRef": "NN284648",
      "source": "Database of British and Irish Hills v18.4"
    },
    {
      "id": "dobih-1284",
      "dobihId": 1284,
      "name": "Beinn na Cro [Ben na Cro]",
      "list": ["marilyns"],
      "region": "South-East Skye and Scalpay",
      "heightM": 572,
      "heightFt": 1877,
      "lat": 57.243635,
      "lon": -6.030529,
      "gridRef": "NG569241",
      "source": "Database of British and Irish Hills v18.4"
    },
    {
      "id": "dobih-1314",
      "dobihId": 1314,
      "name": "Beinn na Croise",
      "list": ["marilyns"],
      "region": "Mull and Nearby Islands",
      "heightM": 503,
      "heightFt": 1650,
      "lat": 56.355163,
      "lon": -5.951659,
      "gridRef": "NM559251",
      "source": "Database of British and Irish Hills v18.4"
    },
    {
      "id": "dobih-1318",
      "dobihId": 1318,
      "name": "Beinn na Drise",
      "list": ["marilyns"],
      "region": "Mull and Nearby Islands",
      "heightM": 424,
      "heightFt": 1391,
      "lat": 56.508543,
      "lon": -6.105231,
      "gridRef": "NM475427",
      "source": "Database of British and Irish Hills v18.4"
    },
    {
      "id": "dobih-1316",
      "dobihId": 1316,
      "name": "Beinn na Duatharach",
      "list": ["marilyns"],
      "region": "Mull and Nearby Islands",
      "heightM": 456,
      "heightFt": 1496,
      "lat": 56.458145,
      "lon": -5.889406,
      "gridRef": "NM604363",
      "source": "Database of British and Irish Hills v18.4"
    },
    {
      "id": "dobih-996",
      "dobihId": 996,
      "name": "Beinn na Feusaige",
      "list": ["grahams", "marilyns"],
      "region": "Applecross to Achnasheen",
      "heightM": 626.8,
      "heightFt": 2056,
      "lat": 57.537831,
      "lon": -5.192445,
      "gridRef": "NH090542",
      "source": "Database of British and Irish Hills v18.4"
    },
    {
      "id": "dobih-6",
      "dobihId": 6,
      "name": "Beinn na Gainimh",
      "list": ["grahams", "marilyns"],
      "region": "Loch Tay to Perth",
      "heightM": 729.3,
      "heightFt": 2393,
      "lat": 56.48786,
      "lon": -3.890033,
      "gridRef": "NN837344",
      "source": "Database of British and Irish Hills v18.4"
    },
    {
      "id": "dobih-1229",
      "dobihId": 1229,
      "name": "Beinn na Greine",
      "list": ["marilyns"],
      "region": "North Skye and Raasay",
      "heightM": 417,
      "heightFt": 1368,
      "lat": 57.393828,
      "lon": -6.229723,
      "gridRef": "NG459416",
      "source": "Database of British and Irish Hills v18.4"
    },
    {
      "id": "dobih-339",
      "dobihId": 339,
      "name": "Beinn na Gucaig",
      "list": ["grahams", "marilyns"],
      "region": "Fort William to Loch Treig & Loch Leven",
      "heightM": 616,
      "heightFt": 2021,
      "lat": 56.739282,
      "lon": -5.168774,
      "gridRef": "NN062653",
      "source": "Database of British and Irish Hills v18.4"
    },
    {
      "id": "dobih-718",
      "dobihId": 718,
      "name": "Beinn na h-Eaglaise",
      "list": ["corbetts", "marilyns"],
      "region": "Glen Shiel to Loch Hourn and Loch Quoich",
      "heightM": 805,
      "heightFt": 2641,
      "lat": 57.14862,
      "lon": -5.548691,
      "gridRef": "NG854120",
      "source": "Database of British and Irish Hills v18.4"
    },
    {
      "id": "dobih-992",
      "dobihId": 992,
      "name": "Beinn na h-Eaglaise",
      "list": ["grahams", "marilyns"],
      "region": "Applecross to Achnasheen",
      "heightM": 735.1,
      "heightFt": 2412,
      "lat": 57.512958,
      "lon": -5.493208,
      "gridRef": "NG908523",
      "source": "Database of British and Irish Hills v18.4"
    },
    {
      "id": "dobih-1238",
      "dobihId": 1238,
      "name": "Beinn na h-Iolaire",
      "list": ["marilyns"],
      "region": "North Skye and Raasay",
      "heightM": 254,
      "heightFt": 833,
      "lat": 57.478825,
      "lon": -6.005471,
      "gridRef": "NG599502",
      "source": "Database of British and Irish Hills v18.4"
    },