{
  "metadata": {
    "source": "Database of British and Irish Hills v18.4",
    "license": "CC BY 4.0",
    "sourceUrl": "https://www.hill-bagging.co.uk/dobih",
    "downloadedFrom": "https://www.hill-bagging.co.uk/dobih-downloads/hillcsv.zip",
    "changes": "Trimmed to Munros and reformatted from DoBIH v18.4",
    "generatedAt": "2026-07-11",
    "count": 282
  },
  "peaks": [
    {
      "id": "dobih-390",
      "dobihId": 390,
      "name": "A' Bhuidheanach Bheag",
      "list": ["munros"],
      "region": "Loch Ericht to Glen Tromie & Glen Garry",
      "heightM": 936,
      "heightFt": 3071,
      "lat": 56.870342,
      "lon": -4.199001,
      "gridRef": "NN660775",
      "source": "Database of British and Irish Hills v18.4"
    },
    {
      "id": "dobih-623",
      "dobihId": 623,
      "name": "A' Chailleach",
      "list": ["munros"],
      "region": "Glen Albyn and the Monadh Liath",
      "heightM": 929.3,
      "heightFt": 3049,
      "lat": 57.109564,
      "lon": -4.179285,
      "gridRef": "NH681041",
      "source": "Database of British and Irish Hills v18.4"
    },
    {
      "id": "dobih-1043",
      "dobihId": 1043,
      "name": "A' Chailleach",
      "list": ["munros"],
      "region": "The Fannaichs",
      "heightM": 998.6,
      "heightFt": 3276,
      "lat": 57.693773,
      "lon": -5.128713,
      "gridRef": "NH136714",
      "source": "Database of British and Irish Hills v18.4"
    },
    {
      "id": "dobih-862",
      "dobihId": 862,
      "name": "A' Chraileag [A' Chralaig]",
      "list": ["munros"],
      "region": "Glen Affric to Glen Moriston",
      "heightM": 1120,
      "heightFt": 3675,
      "lat": 57.184186,
      "lon": -5.154837,
      "gridRef": "NH094147",
      "source": "Database of British and Irish Hills v18.4"
    },
    {
      "id": "dobih-846",
      "dobihId": 846,
      "name": "A' Ghlas-bheinn",
      "list": ["munros"],
      "region": "Loch Duich to Cannich",
      "heightM": 918,
      "heightFt": 3012,
      "lat": 57.255081,
      "lon": -5.303686,
      "gridRef": "NH008231",
      "source": "Database of British and Irish Hills v18.4"
    },
    {
      "id": "dobih-1014",
      "dobihId": 1014,
      "name": "A' Mhaighdean",
      "list": ["munros"],
      "region": "Loch Maree to Loch Broom",
      "heightM": 965.8,
      "heightFt": 3169,
      "lat": 57.719653,
      "lon": -5.346738,
      "gridRef": "NH007749",
      "source": "Database of British and Irish Hills v18.4"
    },
    {
      "id": "dobih-386",
      "dobihId": 386,
      "name": "A' Mharconaich",
      "list": ["munros"],
      "region": "Loch Ericht to Glen Tromie & Glen Garry",
      "heightM": 973.2,
      "heightFt": 3193,
      "lat": 56.857002,
      "lon": -4.290668,
      "gridRef": "NN604762",
      "source": "Database of British and Irish Hills v18.4"
    },
    {
      "id": "dobih-1254",
      "dobihId": 1254,
      "name": "Am Basteir",
      "list": ["munros"],
      "region": "Minginish and the Cuillin Hills",
      "heightM": 934,
      "heightFt": 3064,
      "lat": 57.24794,
      "lon": -6.202966,
      "gridRef": "NG465253",
      "source": "Database of British and Irish Hills v18.4"
    },
    {
      "id": "dobih-303",
      "dobihId": 303,
      "name": "Am Bodach",
      "list": ["munros"],
      "region": "Fort William to Loch Treig & Loch Leven",
      "heightM": 1031.8,
      "heightFt": 3385,
      "lat": 56.74173,
      "lon": -4.98337,
      "gridRef": "NN176650",
      "source": "Database of British and Irish Hills v18.4"
    },
    {
      "id": "dobih-1066",
      "dobihId": 1066,
      "name": "Am Faochagach",
      "list": ["munros"],
      "region": "Loch Broom to Strath Oykel",
      "heightM": 953,
      "heightFt": 3127,
      "lat": 57.771801,
      "lon": -4.853882,
      "gridRef": "NH303793",
      "source": "Database of British and Irish Hills v18.4"
    },
    {
      "id": "dobih-31",
      "dobihId": 31,
      "name": "An Caisteal",
      "list": ["munros"],
      "region": "Loch Lomond to Strathyre",
      "heightM": 995.9,
      "heightFt": 3267,
      "lat": 56.338618,
      "lon": -4.62437,
      "gridRef": "NN378193",
      "source": "Database of British and Irish Hills v18.4"
    },
    {
      "id": "dobih-1052",
      "dobihId": 1052,
      "name": "An Coileachan",
      "list": ["munros"],
      "region": "The Fannaichs",
      "heightM": 924,
      "heightFt": 3031,
      "lat": 57.667625,
      "lon": -4.949498,
      "gridRef": "NH241680",
      "source": "Database of British and Irish Hills v18.4"
    },
    {
      "id": "dobih-312",
      "dobihId": 312,
      "name": "An Gearanach",
      "list": ["munros"],
      "region": "Fort William to Loch Treig & Loch Leven",
      "heightM": 981.5,
      "heightFt": 3220,
      "lat": 56.759172,
      "lon": -4.96623,
      "gridRef": "NN187669",
      "source": "Database of British and Irish Hills v18.4"
    },
    {
      "id": "dobih-927",
      "dobihId": 927,
      "name": "An Riabhachan",
      "list": ["munros"],
      "region": "Killilan to Inverness",
      "heightM": 1129,
      "heightFt": 3704,
      "lat": 57.362437,
      "lon": -5.104745,
      "gridRef": "NH133344",
      "source": "Database of British and Irish Hills v18.4"
    },
    {
      "id": "dobih-407",
      "dobihId": 407,
      "name": "An Sgarsoch",
      "list": ["munros"],
      "region": "Glen Tromie to Glen Tilt",
      "heightM": 1006.5,
      "heightFt": 3302,
      "lat": 56.932109,
      "lon": -3.754294,
      "gridRef": "NN933836",
      "source": "Database of British and Irish Hills v18.4"
    },
    {
      "id": "dobih-433",
      "dobihId": 433,
      "name": "An Socach",
      "list": ["munros"],
      "region": "Pitlochry to Braemar & Blairgowrie",
      "heightM": 942.8,
      "heightFt": 3093,
      "lat": 56.902007,
      "lon": -3.512431,
      "gridRef": "NO079799",
      "source": "Database of British and Irish Hills v18.4"
    },
    {
      "id": "dobih-845",
      "dobihId": 845,
      "name": "An Socach",
      "list": ["munros"],
      "region": "Loch Duich to Cannich",
      "heightM": 919.7,
      "heightFt": 3017,
      "lat": 57.25755,
      "lon": -5.171311,
      "gridRef": "NH088229",
      "source": "Database of British and Irish Hills v18.4"
    },
    {
      "id": "dobih-931",
      "dobihId": 931,
      "name": "An Socach",
      "list": ["munros"],
      "region": "Killilan to Inverness",
      "heightM": 1069,
      "heightFt": 3507,
      "lat": 57.350229,
      "lon": -5.158603,
      "gridRef": "NH100332",
      "source": "Database of British and Irish Hills v18.4"
    },
    {
      "id": "dobih-142",
      "dobihId": 142,
      "name": "An Stuc",
      "list": ["munros"],
      "region": "Glen Lyon to Glen Dochart & Loch Tay",
      "heightM": 1117.1,
      "heightFt": 3665,
      "lat": 56.560084,
      "lon": -4.216248,
      "gridRef": "NN638431",
      "source": "Database of British and Irish Hills v18.4"
    },
    {
      "id": "dobih-1003",
      "dobihId": 1003,
      "name": "An Teallach - Bidein a' Ghlas Thuill",
      "list": ["munros"],
      "region": "Loch Maree to Loch Broom",
      "heightM": 1062.6,
      "heightFt": 3486,
      "lat": 57.807107,
      "lon": -5.251768,
      "gridRef": "NH068843",
      "source": "Database of British and Irish Hills v18.4"
    },
    {
      "id": "dobih-1004",
      "dobihId": 1004,
      "name": "An Teallach - Sgurr Fiona",
      "list": ["munros"],
      "region": "Loch Maree to Loch Broom",
      "heightM": 1058.7,
      "heightFt": 3473,
      "lat": 57.800726,
      "lon": -5.259443,
      "gridRef": "NH064836",
      "source": "Database of British and Irish Hills v18.4"
    },
    {
      "id": "dobih-685",
      "dobihId": 685,
      "name": "Aonach air Chrith",
      "list": ["munros"],
      "region": "Glen Shiel to Loch Hourn and Loch Quoich",
      "heightM": 1019.5,
      "heightFt": 3345,
      "lat": 57.12464,
      "lon": -5.221291,
      "gridRef": "NH051083",
      "source": "Database of British and Irish Hills v18.4"
    },
    {
      "id": "dobih-279",
      "dobihId": 279,
      "name": "Aonach Beag",
      "list": ["munros"],
      "region": "Fort William to Loch Treig & Loch Leven",
      "heightM": 1234,
      "heightFt": 4049,
      "lat": 56.799998,
      "lon": -4.954138,
      "gridRef": "NN197715",
      "source": "Database of British and Irish Hills v18.4"
    },
    {
      "id": "dobih-347",
      "dobihId": 347,
      "name": "Aonach Beag",
      "list": ["munros"],
      "region": "Loch Treig to Loch Ericht",
      "heightM": 1115.8,
      "heightFt": 3661,
      "lat": 56.833498,
      "lon": -4.529175,
      "gridRef": "NN457741",
      "source": "Database of British and Irish Hills v18.4"
    },
    {
      "id": "dobih-179",
      "dobihId": 179,
      "name": "Aonach Eagach - Meall Dearg",
      "list": ["munros"],
      "region": "Loch Leven to Rannoch Station",
      "heightM": 952.3,
      "heightFt": 3124,
      "lat": 56.68074,
      "lon": -5.003235,
      "gridRef": "NN161583",
      "source": "Database of British and Irish Hills v18.4"
    },
    {
      "id": "dobih-178",
      "dobihId": 178,
      "name": "Aonach Eagach - Sgorr nam Fiannaidh",
      "list": ["munros"],
      "region": "Loch Leven to Rannoch Station",
      "heightM": 967.7,
      "heightFt": 3175,
      "lat": 56.679387,
      "lon": -5.037143,
      "gridRef": "NN140583",
      "source": "Database of British and Irish Hills v18.4"
    },
    {
      "id": "dobih-828",
      "dobihId": 828,
      "name": "Aonach Meadhoin",
      "list": ["munros"],
      "region": "Loch Duich to Cannich",
      "heightM": 1001,
      "heightFt": 3284,
      "lat": 57.173026,
      "lon": -5.229166,
      "gridRef": "NH048137",
      "source": "Database of British and Irish Hills v18.4"
    },
    {
      "id": "dobih-281",
      "dobihId": 281,
      "name": "Aonach Mor",
      "list": ["munros"],
      "region": "Fort William to Loch Treig & Loch Leven",
      "heightM": 1220.4,
      "heightFt": 4004,
      "lat": 56.812932,
      "lon": -4.961744,
      "gridRef": "NN193729",
      "source": "Database of British and Irish Hills v18.4"
    },
    {
      "id": "dobih-195",
      "dobihId": 195,
      "name": "Beinn a' Bheithir - Sgorr Dhearg",
      "list": ["munros"],
      "region": "Loch Linnhe to Loch Etive",
      "heightM": 1024.2,
      "heightFt": 3360,
      "lat": 56.65393,
      "lon": -5.171511,
      "gridRef": "NN056558",
      "source": "Database of British and Irish Hills v18.4"
    },
    {
      "id": "dobih-198",
      "dobihId": 198,
      "name": "Beinn a' Bheithir - Sgorr Dhonuill",
      "list": ["munros"],
      "region": "Loch Linnhe to Loch Etive",
      "heightM": 1002.1,
      "heightFt": 3288,
      "lat": 56.650531,
      "lon": -5.19789,
      "gridRef": "NN040555",
      "source": "Database of British and Irish Hills v18.4"
    },
    {
      "id": "dobih-529",
      "dobihId": 529,
      "name": "Beinn a' Bhuird [Beinn a' Bhuird North Top]",
      "list": ["munros"],
      "region": "Cairngorms",
      "heightM": 1196,
      "heightFt": 3924,
      "lat": 57.087581,
      "lon": -3.499383,
      "gridRef": "NJ092006",
      "source": "Database of British and Irish Hills v18.4"
    },
    {
      "id": "dobih-559",
      "dobihId": 559,
      "name": "Beinn a' Chaorainn",
      "list": ["munros"],
      "region": "Cairngorms",
      "heightM": 1083.3,
      "heightFt": 3554,
      "lat": 57.093263,
      "lon": -3.577433,
      "gridRef": "NJ045013",
      "source": "Database of British and Irish Hills v18.4"
    },
    {
      "id": "dobih-663",
      "dobihId": 663,
      "name": "Beinn a' Chaorainn",
      "list": ["munros"],
      "region": "Loch Lochy to Loch Laggan",
      "heightM": 1049.1,
      "heightFt": 3442,
      "lat": 56.928624,
      "lon": -4.653644,
      "gridRef": "NN386850",
      "source": "Database of British and Irish Hills v18.4"
    },
    {
      "id": "dobih-349",
      "dobihId": 349,
      "name": "Beinn a' Chlachair",
      "list": ["munros"],
      "region": "Loch Treig to Loch Ericht",
      "heightM": 1087.8,
      "heightFt": 3569,
      "lat": 56.869534,
      "lon": -4.509668,
      "gridRef": "NN471781",
      "source": "Database of British and Irish Hills v18.4"
    },
    {
      "id": "dobih-75",
      "dobihId": 75,
      "name": "Beinn a' Chleibh",
      "list": ["munros"],
      "region": "Inveraray to Crianlarich",
      "heightM": 916.3,
      "heightFt": 3006,
      "lat": 56.39023,
      "lon": -4.83563,
      "gridRef": "NN250256",
      "source": "Database of British and Irish Hills v18.4"
    },
    {
      "id": "dobih-251",
      "dobihId": 251,
      "name": "Beinn a' Chochuill",
      "list": ["munros"],
      "region": "Glen Etive to Glen Lochy",
      "heightM": 980,
      "heightFt": 3215,
      "lat": 56.44979,
      "lon": -5.068552,
      "gridRef": "NN109328",
      "source": "Database of British and Irish Hills v18.4"
    },
    {
      "id": "dobih-104",
      "dobihId": 104,
      "name": "Beinn a' Chreachain",
      "list": ["munros"],
      "region": "Loch Rannoch to Glen Lyon",
      "heightM": 1080.6,
      "heightFt": 3545,
      "lat": 56.560387,
      "lon": -4.647573,
      "gridRef": "NN373440",
      "source": "Database of British and Irish Hills v18.4"
    },
    {
      "id": "dobih-2925",
      "dobihId": 2925,
      "name": "Beinn a' Chroin",
      "list": ["munros"],
      "region": "Loch Lomond to Strathyre",
      "heightM": 941.4,
      "heightFt": 3089,
      "lat": 56.332,
      "lon": -4.609629,
      "gridRef": "NN387185",
      "source": "Database of British and Irish Hills v18.4"
    },
    {
      "id": "dobih-422",
      "dobihId": 422,
      "name": "Beinn a' Ghlo - Braigh Coire Chruinn-bhalgain",
      "list": ["munros"],
      "region": "Pitlochry to Braemar & Blairgowrie",
      "heightM": 1070,
      "heightFt": 3510,
      "lat": 56.831101,
      "lon": -3.729489,
      "gridRef": "NN945724",
      "source": "Database of British and Irish Hills v18.4"
    },
    {
      "id": "dobih-429",
      "dobihId": 429,
      "name": "Beinn a' Ghlo - Carn Liath",
      "list": ["munros"],
      "region": "Pitlochry to Braemar & Blairgowrie",
      "heightM": 975.8,
      "heightFt": 3201,
      "lat": 56.80777,
      "lon": -3.74409,
      "gridRef": "NN936698",
      "source": "Database of British and Irish Hills v18.4"
    },
    {
      "id": "dobih-421",
      "dobihId": 421,
      "name": "Beinn a' Ghlo - Carn nan Gabhar",
      "list": ["munros"],
      "region": "Pitlochry to Braemar & Blairgowrie",
      "heightM": 1121.9,
      "heightFt": 3681,
      "lat": 56.839846,
      "lon": -3.688022,
      "gridRef": "NN971733",
      "source": "Database of British and Irish Hills v18.4"
    },
    {
      "id": "dobih-108",
      "dobihId": 108,
      "name": "Beinn Achaladair",
      "list": ["munros"],
      "region": "Loch Rannoch to Glen Lyon",
      "heightM": 1038.6,
      "heightFt": 3407,
      "lat": 56.551909,
      "lon": -4.694515,
      "gridRef": "NN344432",
      "source": "Database of British and Irish Hills v18.4"
    },
    {
      "id": "dobih-957",
      "dobihId": 957,
      "name": "Beinn Alligin - Sgurr Mor",
      "list": ["munros"],
      "region": "Loch Torridon to Loch Maree",
      "heightM": 986,
      "heightFt": 3235,
      "lat": 57.590829,
      "lon": -5.572765,
      "gridRef": "NG865612",
      "source": "Database of British and Irish Hills v18.4"
    },
    {
      "id": "dobih-968",
      "dobihId": 968,
      "name": "Beinn Alligin - Tom na Gruagaich",
      "list": ["munros"],
      "region": "Loch Torridon to Loch Maree",
      "heightM": 922,
      "heightFt": 3025,
      "lat": 57.580519,
      "lon": -5.581912,
      "gridRef": "NG859601",
      "source": "Database of British and Irish Hills v18.4"
    },
    {
      "id": "dobih-112",
      "dobihId": 112,
      "name": "Beinn an Dothaidh",
      "list": ["munros"],
      "region": "Loch Rannoch to Glen Lyon",
      "heightM": 1002.3,
      "heightFt": 3288,
      "lat": 56.53013,
      "lon": -4.713981,
      "gridRef": "NN331408",
      "source": "Database of British and Irish Hills v18.4"
    },
    {
      "id": "dobih-354",
      "dobihId": 354,
      "name": "Beinn Bheoil",
      "list": ["munros"],
      "region": "Loch Treig to Loch Ericht",
      "heightM": 1019,
      "heightFt": 3343,
      "lat": 56.813267,
      "lon": -4.430662,
      "gridRef": "NN517717",
      "source": "Database of British and Irish Hills v18.4"
    },
    {
      "id": "dobih-587",
      "dobihId": 587,
      "name": "Beinn Bhreac",
      "list": ["munros"],
      "region": "Cairngorms",
      "heightM": 930.3,
      "heightFt": 3052,
      "lat": 57.055072,
      "lon": -3.553472,
      "gridRef": "NO058970",
      "source": "Database of British and Irish Hills v18.4"
    },
    {
      "id": "dobih-538",
      "dobihId": 538,
      "name": "Beinn Bhrotain",
      "list": ["munros"],
      "region": "Cairngorms",
      "heightM": 1157,
      "heightFt": 3796,
      "lat": 57.009868,
      "lon": -3.723797,
      "gridRef": "NN954922",
      "source": "Database of British and Irish Hills v18.4"
    },
    {
      "id": "dobih-70",
      "dobihId": 70,
      "name": "Beinn Bhuidhe",
      "list": ["munros"],
      "region": "Inveraray to Crianlarich",
      "heightM": 948.5,
      "heightFt": 3112,
      "lat": 56.326686,
      "lon": -4.906709,
      "gridRef": "NN203187",
      "source": "Database of British and Irish Hills v18.4"
    },
    {
      "id": "dobih-38",
      "dobihId": 38,
      "name": "Beinn Chabhair",
      "list": ["munros"],
      "region": "Loch Lomond to Strathyre",
      "heightM": 932.2,
      "heightFt": 3058,
      "lat": 56.325779,
      "lon": -4.641476,
      "gridRef": "NN367179",
      "source": "Database of British and Irish Hills v18.4"
    },
    {
      "id": "dobih-152",
      "dobihId": 152,
      "name": "Beinn Challuim [Ben Challum]",
      "list": ["munros"],
      "region": "Glen Lyon to Glen Dochart & Loch Tay",
      "heightM": 1024.9,
      "heightFt": 3363,
      "lat": 56.454573,
      "lon": -4.619184,
      "gridRef": "NN386322",
      "source": "Database of British and Irish Hills v18.4"
    },
    {
      "id": "dobih-406",
      "dobihId": 406,
      "name": "Beinn Dearg",
      "list": ["munros"],
      "region": "Glen Tromie to Glen Tilt",
      "heightM": 1008.7,
      "heightFt": 3309,
      "lat": 56.877346,
      "lon": -3.883719,
      "gridRef": "NN852778",
      "source": "Database of British and Irish Hills v18.4"
    },
    {
      "id": "dobih-1062",
      "dobihId": 1062,
      "name": "Beinn Dearg",
      "list": ["munros"],
      "region": "Loch Broom to Strath Oykel",
      "heightM": 1084,
      "heightFt": 3556,
      "lat": 57.78635,
      "lon": -4.929557,
      "gridRef": "NH259811",
      "source": "Database of British and Irish Hills v18.4"
    },
    {
      "id": "dobih-105",
      "dobihId": 105,
      "name": "Beinn Dorain",
      "list": ["munros"],
      "region": "Loch Rannoch to Glen Lyon",
      "heightM": 1076,
      "heightFt": 3530,
      "lat": 56.50287,
      "lon": -4.722173,
      "gridRef": "NN325378",
      "source": "Database of British and Irish Hills v18.4"
    },
    {
      "id": "dobih-69",
      "dobihId": 69,
      "name": "Beinn Dubhchraig",
      "list": ["munros"],
      "region": "Inveraray to Crianlarich",
      "heightM": 978.6,
      "heightFt": 3211,
      "lat": 56.391295,
      "lon": -4.743193,
      "gridRef": "NN307254",
      "source": "Database of British and Irish Hills v18.4"
    },
    {
      "id": "dobih-348",
      "dobihId": 348,
      "name": "Beinn Eibhinn",
      "list": ["munros"],
      "region": "Loch Treig to Loch Ericht",
      "heightM": 1103.3,
      "heightFt": 3620,
      "lat": 56.825255,
      "lon": -4.542077,
      "gridRef": "NN449733",
      "source": "Database of British and Irish Hills v18.4"
    },
    {
      "id": "dobih-955",
      "dobihId": 955,
      "name": "Beinn Eighe - Ruadh-stac Mor",
      "list": ["munros"],
      "region": "Loch Torridon to Loch Maree",
      "heightM": 1010,
      "heightFt": 3314,
      "lat": 57.593735,
      "lon": -5.429454,
      "gridRef": "NG951611",
      "source": "Database of British and Irish Hills v18.4"
    },
    {
      "id": "dobih-956",
      "dobihId": 956,
      "name": "Beinn Eighe - Spidean Coire nan Clach",
      "list": ["munros"],
      "region": "Loch Torridon to Loch Maree",
      "heightM": 993,
      "heightFt": 3258,
      "lat": 57.582098,
      "lon": -5.403706,
      "gridRef": "NG966597",
      "source": "Database of British and Irish Hills v18.4"
    },
    {
      "id": "dobih-249",
      "dobihId": 249,
      "name": "Beinn Eunaich",
      "list": ["munros"],
      "region": "Glen Etive to Glen Lochy",
      "heightM": 989,
      "heightFt": 3245,
      "lat": 56.450352,
      "lon": -5.026639,
      "gridRef": "NN135327",
      "source": "Database of British and Irish Hills v18.4"
    },
    {
      "id": "dobih-823",
      "dobihId": 823,
      "name": "Beinn Fhada",
      "list": ["munros"],
      "region": "Loch Duich to Cannich",
      "heightM": 1031.9,
      "heightFt": 3385,
      "lat": 57.221002,
      "lon": -5.283519,
      "gridRef": "NH018192",
      "source": "Database of British and Irish Hills v18.4"
    },
    {
      "id": "dobih-201",
      "dobihId": 201,
      "name": "Beinn Fhionnlaidh",
      "list": ["munros"],
      "region": "Loch Linnhe to Loch Etive",
      "heightM": 959,
      "heightFt": 3146,
      "lat": 56.600978,
      "lon": -5.104749,
      "gridRef": "NN095497",
      "source": "Database of British and Irish Hills v18.4"
    },
    {
      "id": "dobih-826",
      "dobihId": 826,
      "name": "Beinn Fhionnlaidh",
      "list": ["munros"],
      "region": "Loch Duich to Cannich",
      "heightM": 1004.8,
      "heightFt": 3297,
      "lat": 57.305977,
      "lon": -5.129909,
      "gridRef": "NH115282",
      "source": "Database of British and Irish Hills v18.4"
    },
    {
      "id": "dobih-144",
      "dobihId": 144,
      "name": "Beinn Ghlas",
      "list": ["munros"],
      "region": "Glen Lyon to Glen Dochart & Loch Tay",
      "heightM": 1103.4,
      "heightFt": 3620,
      "lat": 56.535996,
      "lon": -4.236992,
      "gridRef": "NN625404",
      "source": "Database of British and Irish Hills v18.4"
    },
    {
      "id": "dobih-68",
      "dobihId": 68,
      "name": "Beinn Ime",
      "list": ["munros"],
      "region": "Inveraray to Crianlarich",
      "heightM": 1012.2,
      "heightFt": 3321,
      "lat": 56.236803,
      "lon": -4.817141,
      "gridRef": "NN255084",
      "source": "Database of British and Irish Hills v18.4"
    },
    {
      "id": "dobih-425",
      "dobihId": 425,
      "name": "Beinn Iutharn Mhor",
      "list": ["munros"],
      "region": "Pitlochry to Braemar & Blairgowrie",
      "heightM": 1045,
      "heightFt": 3428,
      "lat": 56.894994,
      "lon": -3.568229,
      "gridRef": "NO045792",
      "source": "Database of British and Irish Hills v18.4"
    },
    {
      "id": "dobih-983",
      "dobihId": 983,
      "name": "Beinn Liath Mhor",
      "list": ["munros"],
      "region": "Applecross to Achnasheen",
      "heightM": 926,
      "heightFt": 3038,
      "lat": 57.512074,
      "lon": -5.400617,
      "gridRef": "NG964519",
      "source": "Database of British and Irish Hills v18.4"
    },
    {
      "id": "dobih-1046",
      "dobihId": 1046,
      "name": "Beinn Liath Mhor Fannaich",
      "list": ["munros"],
      "region": "The Fannaichs",
      "heightM": 954.2,
      "heightFt": 3131,
      "lat": 57.706095,
      "lon": -4.989775,
      "gridRef": "NH219724",
      "source": "Database of British and Irish Hills v18.4"
    },
    {
      "id": "dobih-122",
      "dobihId": 122,
      "name": "Beinn Mhanach",
      "list": ["munros"],
      "region": "Loch Rannoch to Glen Lyon",
      "heightM": 952.5,
      "heightFt": 3125,
      "lat": 56.534032,
      "lon": -4.646042,
      "gridRef": "NN373411",
      "source": "Database of British and Irish Hills v18.4"
    },
    {
      "id": "dobih-531",
      "dobihId": 531,
      "name": "Beinn Mheadhoin",
      "list": ["munros"],
      "region": "Cairngorms",
      "heightM": 1182.9,
      "heightFt": 3881,
      "lat": 57.095849,
      "lon": -3.611464,
      "gridRef": "NJ024016",
      "source": "Database of British and Irish Hills v18.4"
    },
    {
      "id": "dobih-364",
      "dobihId": 364,
      "name": "Beinn na Lap",
      "list": ["munros"],
      "region": "Loch Treig to Loch Ericht",
      "heightM": 935,
      "heightFt": 3068,
      "lat": 56.78939,
      "lon": -4.659977,
      "gridRef": "NN376695",
      "source": "Database of British and Irish Hills v18.4"
    },
    {
      "id": "dobih-254",
      "dobihId": 254,
      "name": "Beinn nan Aighenan",
      "list": ["munros"],
      "region": "Glen Etive to Glen Lochy",
      "heightM": 959,
      "heightFt": 3146,
      "lat": 56.520349,
      "lon": -5.011178,
      "gridRef": "NN148405",
      "source": "Database of British and Irish Hills v18.4"
    },
    {
      "id": "dobih-74",
      "dobihId": 74,
      "name": "Beinn Narnain",
      "list": ["munros"],
      "region": "Inveraray to Crianlarich",
      "heightM": 926.8,
      "heightFt": 3041,
      "lat": 56.220956,
      "lon": -4.789003,
      "gridRef": "NN271066",
      "source": "Database of British and Irish Hills v18.4"
    },
    {
      "id": "dobih-695",
      "dobihId": 695,
      "name": "Beinn Sgritheall",
      "list": ["munros"],
      "region": "Glen Shiel to Loch Hourn and Loch Quoich",
      "heightM": 974,
      "heightFt": 3196,
      "lat": 57.153815,
      "lon": -5.579727,
      "gridRef": "NG835126",
      "source": "Database of British and Irish Hills v18.4"
    },
    {
      "id": "dobih-207",
      "dobihId": 207,
      "name": "Beinn Sgulaird",
      "list": ["munros"],
      "region": "Loch Linnhe to Loch Etive",
      "heightM": 937,
      "heightFt": 3074,
      "lat": 56.56624,
      "lon": -5.170399,
      "gridRef": "NN053460",
      "source": "Database of British and Irish Hills v18.4"
    },
    {
      "id": "dobih-145",
      "dobihId": 145,
      "name": "Beinn Sheasgarnaich [Beinn Heasgarnich]",
      "list": ["munros"],
      "region": "Glen Lyon to Glen Dochart & Loch Tay",
      "heightM": 1077.4,
      "heightFt": 3535,
      "lat": 56.510254,
      "lon": -4.579217,
      "gridRef": "NN413383",
      "source": "Database of British and Irish Hills v18.4"
    },
    {
      "id": "dobih-1019",
      "dobihId": 1019,
      "name": "Beinn Tarsuinn",
      "list": ["munros"],
      "region": "Loch Maree to Loch Broom",
      "heightM": 933.8,
      "heightFt": 3064,
      "lat": 57.702052,
      "lon": -5.291617,
      "gridRef": "NH039727",
      "source": "Database of British and Irish Hills v18.4"
    },
    {
      "id": "dobih-675",
      "dobihId": 675,
      "name": "Beinn Teallach",
      "list": ["munros"],
      "region": "Loch Lochy to Loch Laggan",
      "heightM": 914.6,
      "heightFt": 3001,
      "lat": 56.935932,
      "lon": -4.694754,
      "gridRef": "NN361859",
      "source": "Database of British and Irish Hills v18.4"
    },
    {
      "id": "dobih-35",
      "dobihId": 35,
      "name": "Beinn Tulaichean",
      "list": ["munros"],
      "region": "Loch Lomond to Strathyre",
      "heightM": 945.8,
      "heightFt": 3103,
      "lat": 56.342234,
      "lon": -4.563315,
      "gridRef": "NN416196",
      "source": "Database of British and Irish Hills v18.4"
    },
    {
      "id": "dobih-383",
      "dobihId": 383,
      "name": "Beinn Udlamain",
      "list": ["munros"],
      "region": "Loch Ericht to Glen Tromie & Glen Garry",
      "heightM": 1010.2,
      "heightFt": 3314,
      "lat": 56.835444,
      "lon": -4.329976,
      "gridRef": "NN579739",
      "source": "Database of British and Irish Hills v18.4"
    },
    {
      "id": "dobih-345",
      "dobihId": 345,
      "name": "Ben Alder",
      "list": ["munros"],
      "region": "Loch Treig to Loch Ericht",
      "heightM": 1148,
      "heightFt": 3766,
      "lat": 56.813796,
      "lon": -4.465089,
      "gridRef": "NN496718",
      "source": "Database of British and Irish Hills v18.4"
    },
    {
      "id": "dobih-536",
      "dobihId": 536,
      "name": "Ben Avon - Leabaidh an Daimh Bhuidhe",
      "list": ["munros"],
      "region": "Cairngorms",
      "heightM": 1172,
      "heightFt": 3845,
      "lat": 57.099347,
      "lon": -3.434438,
      "gridRef": "NJ131018",
      "source": "Database of British and Irish Hills v18.4"
    },
    {
      "id": "dobih-1",
      "dobihId": 1,
      "name": "Ben Chonzie",
      "list": ["munros"],
      "region": "Loch Tay to Perth",
      "heightM": 930.4,
      "heightFt": 3052,
      "lat": 56.453851,
      "lon": -3.992057,
      "gridRef": "NN773308",
      "source": "Database of British and Irish Hills v18.4"
    },
    {
      "id": "dobih-232",
      "dobihId": 232,
      "name": "Ben Cruachan",
      "list": ["munros"],
      "region": "Glen Etive to Glen Lochy",
      "heightM": 1127,
      "heightFt": 3698,
      "lat": 56.426841,
      "lon": -5.131802,
      "gridRef": "NN069304",
      "source": "Database of British and Irish Hills v18.4"
    },
    {
      "id": "dobih-1123",
      "dobihId": 1123,
      "name": "Ben Hope",
      "list": ["munros"],
      "region": "Durness to Loch Shin",
      "heightM": 927,
      "heightFt": 3041,
      "lat": 58.413113,
      "lon": -4.60786,
      "gridRef": "NC477501",
      "source": "Database of British and Irish Hills v18.4"
    },
    {
      "id": "dobih-1165",
      "dobihId": 1165,
      "name": "Ben Klibreck - Meall nan Con",
      "list": ["munros"],
      "region": "Altnaharra to Dornoch",
      "heightM": 962.1,
      "heightFt": 3156,
      "lat": 58.235202,
      "lon": -4.41113,
      "gridRef": "NC585299",
      "source": "Database of British and Irish Hills v18.4"
    },
    {
      "id": "dobih-141",
      "dobihId": 141,
      "name": "Ben Lawers",
      "list": ["munros"],
      "region": "Glen Lyon to Glen Dochart & Loch Tay",
      "heightM": 1214.3,
      "heightFt": 3984,
      "lat": 56.544921,
      "lon": -4.220876,
      "gridRef": "NN635414",
      "source": "Database of British and Irish Hills v18.4"
    },
    {
      "id": "dobih-32",
      "dobihId": 32,
      "name": "Ben Lomond",
      "list": ["munros"],
      "region": "Loch Lomond to Strathyre",
      "heightM": 973.7,
      "heightFt": 3195,
      "lat": 56.190302,
      "lon": -4.63301,
      "gridRef": "NN367028",
      "source": "Database of British and Irish Hills v18.4"
    },
    {
      "id": "dobih-65",
      "dobihId": 65,
      "name": "Ben Lui [Beinn Laoigh]",
      "list": ["munros"],
      "region": "Inveraray to Crianlarich",
      "heightM": 1131.4,
      "heightFt": 3712,
      "lat": 56.397004,
      "lon": -4.810509,
      "gridRef": "NN266262",
      "source": "Database of British and Irish Hills v18.4"
    },
    {
      "id": "dobih-518",
      "dobihId": 518,
      "name": "Ben Macdui [Beinn Macduibh]",
      "list": ["munros"],
      "region": "Cairngorms",
      "heightM": 1309.3,
      "heightFt": 4296,
      "lat": 57.070368,
      "lon": -3.669099,
      "gridRef": "NN988989",
      "source": "Database of British and Irish Hills v18.4"
    },
    {
      "id": "dobih-26",
      "dobihId": 26,
      "name": "Ben More",
      "list": ["munros"],
      "region": "Loch Lomond to Strathyre",
      "heightM": 1173.9,
      "heightFt": 3851,
      "lat": 56.385952,
      "lon": -4.540087,
      "gridRef": "NN432244",
      "source": "Database of British and Irish Hills v18.4"
    },
    {
      "id": "dobih-1301",
      "dobihId": 1301,
      "name": "Ben More",
      "list": ["munros"],
      "region": "Mull and Nearby Islands",
      "heightM": 966,
      "heightFt": 3169,
      "lat": 56.424829,
      "lon": -6.013999,
      "gridRef": "NM525330",
      "source": "Database of British and Irish Hills v18.4"
    },
    {
      "id": "dobih-1183",
      "dobihId": 1183,
      "name": "Ben More Assynt",
      "list": ["munros"],
      "region": "Scourie to Lairg",
      "heightM": 998.9,
      "heightFt": 3277,
      "lat": 58.138164,
      "lon": -4.858208,
      "gridRef": "NC318201",
      "source": "Database of British and Irish Hills v18.4"
    },
    {
      "id": "dobih-278",
      "dobihId": 278,
      "name": "Ben Nevis [Beinn Nibheis]",
      "list": ["munros"],
      "region": "Fort William to Loch Treig & Loch Leven",
      "heightM": 1344.53,
      "heightFt": 4411,
      "lat": 56.796891,
      "lon": -5.003675,
      "gridRef": "NN166712",
      "source": "Database of British and Irish Hills v18.4"
    },
    {
      "id": "dobih-67",
      "dobihId": 67,
      "name": "Ben Oss",
      "list": ["munros"],
      "region": "Inveraray to Crianlarich",
      "heightM": 1029.8,
      "heightFt": 3379,
      "lat": 56.389027,
      "lon": -4.775195,
      "gridRef": "NN287253",
      "source": "Database of British and Irish Hills v18.4"
    },
    {
      "id": "dobih-238",
      "dobihId": 238,
      "name": "Ben Starav",
      "list": ["munros"],
      "region": "Glen Etive to Glen Lochy",
      "heightM": 1079.5,
      "heightFt": 3542,
      "lat": 56.538931,
      "lon": -5.049781,
      "gridRef": "NN125427",
      "source": "Database of British and Irish Hills v18.4"
    },
    {
      "id": "dobih-76",
      "dobihId": 76,
      "name": "Ben Vane",
      "list": ["munros"],
      "region": "Inveraray to Crianlarich",
      "heightM": 915.76,
      "heightFt": 3004,
      "lat": 56.249786,
      "lon": -4.781655,
      "gridRef": "NN277098",
      "source": "Database of British and Irish Hills v18.4"
    },
    {
      "id": "dobih-17",
      "dobihId": 17,
      "name": "Ben Vorlich",
      "list": ["munros"],
      "region": "Strathyre to Strathallan",
      "heightM": 985.3,
      "heightFt": 3233,
      "lat": 56.34268,
      "lon": -4.219464,
      "gridRef": "NN629189",
      "source": "Database of British and Irish Hills v18.4"
    },
    {
      "id": "dobih-71",
      "dobihId": 71,
      "name": "Ben Vorlich",
      "list": ["munros"],
      "region": "Inveraray to Crianlarich",
      "heightM": 942.8,
      "heightFt": 3093,
      "lat": 56.274021,
      "lon": -4.755046,
      "gridRef": "NN295124",
      "source": "Database of British and Irish Hills v18.4"
    },
    {
      "id": "dobih-1088",
      "dobihId": 1088,
      "name": "Ben Wyvis - Glas Leathad Mor",
      "list": ["munros"],
      "region": "Loch Vaich to Moray Firth",
      "heightM": 1046,
      "heightFt": 3432,
      "lat": 57.678914,
      "lon": -4.57925,
      "gridRef": "NH462683",
      "source": "Database of British and Irish Hills v18.4"
    },
    {
      "id": "dobih-191",
      "dobihId": 191,
      "name": "Bidean nam Bian",
      "list": ["munros"],
      "region": "Loch Linnhe to Loch Etive",
      "heightM": 1149.4,
      "heightFt": 3771,
      "lat": 56.642759,
      "lon": -5.029335,
      "gridRef": "NN143542",
      "source": "Database of British and Irish Hills v18.4"
    },
    {
      "id": "dobih-898",
      "dobihId": 898,
      "name": "Bidein a' Choire Sheasgaich",
      "list": ["munros"],
      "region": "Kyle of Lochalsh to Garve",
      "heightM": 945,
      "heightFt": 3100,
      "lat": 57.41971,
      "lon": -5.250472,
      "gridRef": "NH049412",
      "source": "Database of British and Irish Hills v18.4"
    },
    {
      "id": "dobih-320",
      "dobihId": 320,
      "name": "Binnein Beag",
      "list": ["munros"],
      "region": "Fort William to Loch Treig & Loch Leven",
      "heightM": 943,
      "heightFt": 3094,
      "lat": 56.766961,
      "lon": -4.911161,
      "gridRef": "NN221677",
      "source": "Database of British and Irish Hills v18.4"
    },
    {
      "id": "dobih-287",
      "dobihId": 287,
      "name": "Binnein Mor",
      "list": ["munros"],
      "region": "Fort William to Loch Treig & Loch Leven",
      "heightM": 1130,
      "heightFt": 3707,
      "lat": 56.754376,
      "lon": -4.925796,
      "gridRef": "NN212663",
      "source": "Database of British and Irish Hills v18.4"
    },
    {
      "id": "dobih-1255",
      "dobihId": 1255,
      "name": "Blabheinn [Bla Bheinn]",
      "list": ["munros"],
      "region": "Minginish and the Cuillin Hills",
      "heightM": 928.8,
      "heightFt": 3047,
      "lat": 57.219565,
      "lon": -6.09321,
      "gridRef": "NG529217",
      "source": "Database of British and Irish Hills v18.4"
    },
    {
      "id": "dobih-519",
      "dobihId": 519,
      "name": "Braeriach",
      "list": ["munros"],
      "region": "Cairngorms",
      "heightM": 1296,
      "heightFt": 4252,
      "lat": 57.078298,
      "lon": -3.728373,
      "gridRef": "NN953999",
      "source": "Database of British and Irish Hills v18.4"
    },
    {
      "id": "dobih-470",
      "dobihId": 470,
      "name": "Broad Cairn",
      "list": ["munros"],
      "region": "Braemar to Montrose",
      "heightM": 997.1,
      "heightFt": 3271,
      "lat": 56.919148,
      "lon": -3.249082,
      "gridRef": "NO240815",
      "source": "Database of British and Irish Hills v18.4"
    },
    {
      "id": "dobih-1247",
      "dobihId": 1247,
      "name": "Bruach na Frithe",
      "list": ["munros"],
      "region": "Minginish and the Cuillin Hills",
      "heightM": 958.8,
      "heightFt": 3146,
      "lat": 57.246761,
      "lon": -6.210795,
      "gridRef": "NG460252",
      "source": "Database of British and Irish Hills v18.4"
    },
    {
      "id": "dobih-209",
      "dobihId": 209,
      "name": "Buachaille Etive Beag - Stob Coire Raineach",
      "list": ["munros"],
      "region": "Loch Linnhe to Loch Etive",
      "heightM": 924.5,
      "heightFt": 3033,
      "lat": 56.649904,
      "lon": -4.951601,
      "gridRef": "NN191547",
      "source": "Database of British and Irish Hills v18.4"
    },
    {
      "id": "dobih-202",
      "dobihId": 202,
      "name": "Buachaille Etive Beag - Stob Dubh",
      "list": ["munros"],
      "region": "Loch Linnhe to Loch Etive",
      "heightM": 956.7,
      "heightFt": 3139,
      "lat": 56.638095,
      "lon": -4.970712,
      "gridRef": "NN179535",
      "source": "Database of British and Irish Hills v18.4"
    },
    {
      "id": "dobih-196",
      "dobihId": 196,
      "name": "Buachaille Etive Mor - Stob Dearg",
      "list": ["munros"],
      "region": "Loch Linnhe to Loch Etive",
      "heightM": 1021.4,
      "heightFt": 3351,
      "lat": 56.646228,
      "lon": -4.900377,
      "gridRef": "NN222542",
      "source": "Database of British and Irish Hills v18.4"
    },
    {
      "id": "dobih-203",
      "dobihId": 203,
      "name": "Buachaille Etive Mor - Stob na Broige",
      "list": ["munros"],
      "region": "Loch Linnhe to Loch Etive",
      "heightM": 953.4,
      "heightFt": 3128,
      "lat": 56.629879,
      "lon": -4.951162,
      "gridRef": "NN190525",
      "source": "Database of British and Irish Hills v18.4"
    },
    {
      "id": "dobih-557",
      "dobihId": 557,
      "name": "Bynack More",
      "list": ["munros"],
      "region": "Cairngorms",
      "heightM": 1090.4,
      "heightFt": 3577,
      "lat": 57.13822,
      "lon": -3.584733,
      "gridRef": "NJ041063",
      "source": "Database of British and Irish Hills v18.4"
    },
    {
      "id": "dobih-468",
      "dobihId": 468,
      "name": "Cairn Bannoch",
      "list": ["munros"],
      "region": "Braemar to Montrose",
      "heightM": 1011.1,
      "heightFt": 3317,
      "lat": 56.927728,
      "lon": -3.278403,
      "gridRef": "NO222825",
      "source": "Database of British and Irish Hills v18.4"
    },
    {
      "id": "dobih-525",
      "dobihId": 525,
      "name": "Cairn Gorm",
      "list": ["munros"],
      "region": "Cairngorms",
      "heightM": 1244.8,
      "heightFt": 4084,
      "lat": 57.116714,
      "lon": -3.644477,
      "gridRef": "NJ005040",
      "source": "Database of British and Irish Hills v18.4"
    },
    {
      "id": "dobih-463",
      "dobihId": 463,
      "name": "Cairn of Claise",
      "list": ["munros"],
      "region": "Braemar to Montrose",
      "heightM": 1063.1,
      "heightFt": 3488,
      "lat": 56.894179,
      "lon": -3.338638,
      "gridRef": "NO185788",
      "source": "Database of British and Irish Hills v18.4"
    },
    {
      "id": "dobih-521",
      "dobihId": 521,
      "name": "Cairn Toul",
      "list": ["munros"],
      "region": "Cairngorms",
      "heightM": 1291,
      "heightFt": 4236,
      "lat": 57.054406,
      "lon": -3.710757,
      "gridRef": "NN963972",
      "source": "Database of British and Irish Hills v18.4"
    },
    {
      "id": "dobih-409",
      "dobihId": 409,
      "name": "Carn a' Chlamain",
      "list": ["munros"],
      "region": "Glen Tromie to Glen Tilt",
      "heightM": 963.5,
      "heightFt": 3161,
      "lat": 56.860965,
      "lon": -3.779634,
      "gridRef": "NN915758",
      "source": "Database of British and Irish Hills v18.4"
    },
    {
      "id": "dobih-459",
      "dobihId": 459,
      "name": "Carn a' Choire Bhoidheach",
      "list": ["munros"],
      "region": "Braemar to Montrose",
      "heightM": 1109.9,
      "heightFt": 3641,
      "lat": 56.945773,
      "lon": -3.272707,
      "gridRef": "NO226845",
      "source": "Database of British and Irish Hills v18.4"
    },
    {
      "id": "dobih-428",
      "dobihId": 428,
      "name": "Carn a' Gheoidh",
      "list": ["munros"],
      "region": "Pitlochry to Braemar & Blairgowrie",
      "heightM": 976.1,
      "heightFt": 3202,
      "lat": 56.873065,
      "lon": -3.466616,
      "gridRef": "NO107767",
      "source": "Database of British and Irish Hills v18.4"
    },
    {
      "id": "dobih-567",
      "dobihId": 567,
      "name": "Carn a' Mhaim",
      "list": ["munros"],
      "region": "Cairngorms",
      "heightM": 1039.1,
      "heightFt": 3409,
      "lat": 57.036871,
      "lon": -3.658384,
      "gridRef": "NN994951",
      "source": "Database of British and Irish Hills v18.4"
    },
    {
      "id": "dobih-408",
      "dobihId": 408,
      "name": "Carn an Fhidhleir [Carn Ealar]",
      "list": ["munros"],
      "region": "Glen Tromie to Glen Tilt",
      "heightM": 994,
      "heightFt": 3261,
      "lat": 56.936029,
      "lon": -3.801535,
      "gridRef": "NN904841",
      "source": "Database of British and Irish Hills v18.4"
    },
    {
      "id": "dobih-426",
      "dobihId": 426,
      "name": "Carn an Righ",
      "list": ["munros"],
      "region": "Pitlochry to Braemar & Blairgowrie",
      "heightM": 1029,
      "heightFt": 3376,
      "lat": 56.876583,
      "lon": -3.595273,
      "gridRef": "NO028772",
      "source": "Database of British and Irish Hills v18.4"
    },
    {
      "id": "dobih-465",
      "dobihId": 465,
      "name": "Carn an t-Sagairt Mor",
      "list": ["munros"],
      "region": "Braemar to Montrose",
      "heightM": 1047,
      "heightFt": 3435,
      "lat": 56.942973,
      "lon": -3.303227,
      "gridRef": "NO208842",
      "source": "Database of British and Irish Hills v18.4"
    },
    {
      "id": "dobih-467",
      "dobihId": 467,
      "name": "Carn an Tuirc",
      "list": ["munros"],
      "region": "Braemar to Montrose",
      "heightM": 1018.8,
      "heightFt": 3343,
      "lat": 56.908265,
      "lon": -3.357125,
      "gridRef": "NO174804",
      "source": "Database of British and Irish Hills v18.4"
    },
    {
      "id": "dobih-438",
      "dobihId": 438,
      "name": "Carn Aosda",
      "list": ["munros"],
      "region": "Pitlochry to Braemar & Blairgowrie",
      "heightM": 915.3,
      "heightFt": 3003,
      "lat": 56.895696,
      "lon": -3.423274,
      "gridRef": "NO133791",
      "source": "Database of British and Irish Hills v18.4"
    },
    {
      "id": "dobih-432",
      "dobihId": 432,
      "name": "Carn Bhac",
      "list": ["munros"],
      "region": "Pitlochry to Braemar & Blairgowrie",
      "heightM": 945.1,
      "heightFt": 3101,
      "lat": 56.930558,
      "lon": -3.560897,
      "gridRef": "NO051832",
      "source": "Database of British and Irish Hills v18.4"
    },
    {
      "id": "dobih-352",
      "dobihId": 352,
      "name": "Carn Dearg",
      "list": ["munros"],
      "region": "Loch Treig to Loch Ericht",
      "heightM": 1034.1,
      "heightFt": 3393,
      "lat": 56.855242,
      "lon": -4.454693,
      "gridRef": "NN504764",
      "source": "Database of British and Irish Hills v18.4"
    },
    {
      "id": "dobih-363",
      "dobihId": 363,
      "name": "Carn Dearg",
      "list": ["munros"],
      "region": "Loch Treig to Loch Ericht",
      "heightM": 941,
      "heightFt": 3087,
      "lat": 56.759922,
      "lon": -4.589888,
      "gridRef": "NN417661",
      "source": "Database of British and Irish Hills v18.4"
    },
    {
      "id": "dobih-621",
      "dobihId": 621,
      "name": "Carn Dearg",
      "list": ["munros"],
      "region": "Glen Albyn and the Monadh Liath",
      "heightM": 945.7,
      "heightFt": 3103,
      "lat": 57.092261,
      "lon": -4.253246,
      "gridRef": "NH635023",
      "source": "Database of British and Irish Hills v18.4"
    },
    {
      "id": "dobih-803",
      "dobihId": 803,
      "name": "Carn Eighe",
      "list": ["munros"],
      "region": "Loch Duich to Cannich",
      "heightM": 1182.8,
      "heightFt": 3881,
      "lat": 57.287701,
      "lon": -5.115159,
      "gridRef": "NH123261",
      "source": "Database of British and Irish Hills v18.4"
    },
    {
      "id": "dobih-871",
      "dobihId": 871,
      "name": "Carn Ghluasaid",
      "list": ["munros"],
      "region": "Glen Affric to Glen Moriston",
      "heightM": 956.3,
      "heightFt": 3137,
      "lat": 57.165959,
      "lon": -5.068159,
      "gridRef": "NH145125",
      "source": "Database of British and Irish Hills v18.4"
    },
    {
      "id": "dobih-109",
      "dobihId": 109,
      "name": "Carn Gorm",
      "list": ["munros"],
      "region": "Loch Rannoch to Glen Lyon",
      "heightM": 1029.5,
      "heightFt": 3378,
      "lat": 56.622528,
      "lon": -4.226037,
      "gridRef": "NN635500",
      "source": "Database of British and Irish Hills v18.4"
    },
    {
      "id": "dobih-668",
      "dobihId": 668,
      "name": "Carn Liath",
      "list": ["munros"],
      "region": "Loch Lochy to Loch Laggan",
      "heightM": 1006.1,
      "heightFt": 3301,
      "lat": 56.978793,
      "lon": -4.515289,
      "gridRef": "NN472903",
      "source": "Database of British and Irish Hills v18.4"
    },
    {
      "id": "dobih-107",
      "dobihId": 107,
      "name": "Carn Mairg",
      "list": ["munros"],
      "region": "Loch Rannoch to Glen Lyon",
      "heightM": 1043,
      "heightFt": 3422,
      "lat": 56.634635,
      "lon": -4.145624,
      "gridRef": "NN684512",
      "source": "Database of British and Irish Hills v18.4"
    },
    {
      "id": "dobih-282",
      "dobihId": 282,
      "name": "Carn Mor Dearg",
      "list": ["munros"],
      "region": "Fort William to Loch Treig & Loch Leven",
      "heightM": 1220,
      "heightFt": 4003,
      "lat": 56.805246,
      "lon": -4.986616,
      "gridRef": "NN177721",
      "source": "Database of British and Irish Hills v18.4"
    },
    {
      "id": "dobih-389",
      "dobihId": 389,
      "name": "Carn na Caim",
      "list": ["munros"],
      "region": "Loch Ericht to Glen Tromie & Glen Garry",
      "heightM": 940.8,
      "heightFt": 3087,
      "lat": 56.911722,
      "lon": -4.174444,
      "gridRef": "NN677821",
      "source": "Database of British and Irish Hills v18.4"
    },
    {
      "id": "dobih-895",
      "dobihId": 895,
      "name": "Carn nan Gobhar",
      "list": ["munros"],
      "region": "Kyle of Lochalsh to Garve",
      "heightM": 992,
      "heightFt": 3255,
      "lat": 57.452331,
      "lon": -4.879935,
      "gridRef": "NH273438",
      "source": "Database of British and Irish Hills v18.4"
    },
    {
      "id": "dobih-936",
      "dobihId": 936,
      "name": "Carn nan Gobhar",
      "list": ["munros"],
      "region": "Killilan to Inverness",
      "heightM": 992.3,
      "heightFt": 3256,
      "lat": 57.363304,
      "lon": -5.024544,
      "gridRef": "NH181343",
      "source": "Database of British and Irish Hills v18.4"
    },
    {
      "id": "dobih-626",
      "dobihId": 626,
      "name": "Carn Sgulain",
      "list": ["munros"],
      "region": "Glen Albyn and the Monadh Liath",
      "heightM": 920.3,
      "heightFt": 3019,
      "lat": 57.124371,
      "lon": -4.176986,
      "gridRef": "NH683058",
      "source": "Database of British and Irish Hills v18.4"
    },
    {
      "id": "dobih-351",
      "dobihId": 351,
      "name": "Chno Dearg",
      "list": ["munros"],
      "region": "Loch Treig to Loch Ericht",
      "heightM": 1046,
      "heightFt": 3432,
      "lat": 56.830077,
      "lon": -4.66083,
      "gridRef": "NN377741",
      "source": "Database of British and Irish Hills v18.4"
    },
    {
      "id": "dobih-834",
      "dobihId": 834,
      "name": "Ciste Dhubh",
      "list": ["munros"],
      "region": "Loch Duich to Cannich",
      "heightM": 981.1,
      "heightFt": 3219,
      "lat": 57.199243,
      "lon": -5.209033,
      "gridRef": "NH062166",
      "source": "Database of British and Irish Hills v18.4"
    },
    {
      "id": "dobih-1063",
      "dobihId": 1063,
      "name": "Cona' Mheall",
      "list": ["munros"],
      "region": "Loch Broom to Strath Oykel",
      "heightM": 977.8,
      "heightFt": 3208,
      "lat": 57.791086,
      "lon": -4.903419,
      "gridRef": "NH275816",
      "source": "Database of British and Irish Hills v18.4"
    },
    {
      "id": "dobih-1184",
      "dobihId": 1184,
      "name": "Conival",
      "list": ["munros"],
      "region": "Scourie to Lairg",
      "heightM": 987.6,
      "heightFt": 3240,
      "lat": 58.135689,
      "lon": -4.883497,
      "gridRef": "NC303199",
      "source": "Database of British and Irish Hills v18.4"
    },
    {
      "id": "dobih-700",
      "dobihId": 700,
      "name": "Creag a' Mhaim",
      "list": ["munros"],
      "region": "Glen Shiel to Loch Hourn and Loch Quoich",
      "heightM": 946.2,
      "heightFt": 3104,
      "lat": 57.120971,
      "lon": -5.160048,
      "gridRef": "NH087077",
      "source": "Database of British and Irish Hills v18.4"
    },
    {
      "id": "dobih-472",
      "dobihId": 472,
      "name": "Creag Leacach",
      "list": ["munros"],
      "region": "Braemar to Montrose",
      "heightM": 988.2,
      "heightFt": 3242,
      "lat": 56.85464,
      "lon": -3.387768,
      "gridRef": "NO154745",
      "source": "Database of British and Irish Hills v18.4"
    },
    {
      "id": "dobih-658",
      "dobihId": 658,
      "name": "Creag Meagaidh",
      "list": ["munros"],
      "region": "Loch Lochy to Loch Laggan",
      "heightM": 1128.1,
      "heightFt": 3701,
      "lat": 56.952023,
      "lon": -4.602117,
      "gridRef": "NN418875",
      "source": "Database of British and Irish Hills v18.4"
    },
    {
      "id": "dobih-148",
      "dobihId": 148,
      "name": "Creag Mhor",
      "list": ["munros"],
      "region": "Glen Lyon to Glen Dochart & Loch Tay",
      "heightM": 1046.8,
      "heightFt": 3434,
      "lat": 56.489519,
      "lon": -4.614038,
      "gridRef": "NN391361",
      "source": "Database of British and Irish Hills v18.4"
    },
    {
      "id": "dobih-708",
      "dobihId": 708,
      "name": "Creag nan Damh",
      "list": ["munros"],
      "region": "Glen Shiel to Loch Hourn and Loch Quoich",
      "heightM": 917.2,
      "heightFt": 3009,
      "lat": 57.14728,
      "lon": -5.334978,
      "gridRef": "NG983111",
      "source": "Database of British and Irish Hills v18.4"
    },
    {
      "id": "dobih-367",
      "dobihId": 367,
      "name": "Creag Pitridh",
      "list": ["munros"],
      "region": "Loch Treig to Loch Ericht",
      "heightM": 924.5,
      "heightFt": 3033,
      "lat": 56.899712,
      "lon": -4.484972,
      "gridRef": "NN487814",
      "source": "Database of British and Irish Hills v18.4"
    },
    {
      "id": "dobih-235",
      "dobihId": 235,
      "name": "Creise",
      "list": ["munros"],
      "region": "Glen Etive to Glen Lochy",
      "heightM": 1099.8,
      "heightFt": 3608,
      "lat": 56.614448,
      "lon": -4.871987,
      "gridRef": "NN238506",
      "source": "Database of British and Irish Hills v18.4"
    },
    {
      "id": "dobih-30",
      "dobihId": 30,
      "name": "Cruach Ardrain",
      "list": ["munros"],
      "region": "Loch Lomond to Strathyre",
      "heightM": 1045.9,
      "heightFt": 3431,
      "lat": 56.356438,
      "lon": -4.576152,
      "gridRef": "NN409212",
      "source": "Database of British and Irish Hills v18.4"
    },
    {
      "id": "dobih-539",
      "dobihId": 539,
      "name": "Derry Cairngorm",
      "list": ["munros"],
      "region": "Cairngorms",
      "heightM": 1155.8,
      "heightFt": 3792,
      "lat": 57.062801,
      "lon": -3.622004,
      "gridRef": "NO017980",
      "source": "Database of British and Irish Hills v18.4"
    },
    {
      "id": "dobih-483",
      "dobihId": 483,
      "name": "Driesh",
      "list": ["munros"],
      "region": "Braemar to Montrose",
      "heightM": 947.6,
      "heightFt": 3109,
      "lat": 56.848003,
      "lon": -3.196539,
      "gridRef": "NO271735",
      "source": "Database of British and Irish Hills v18.4"
    },
    {
      "id": "dobih-692",
      "dobihId": 692,
      "name": "Druim Shionnach",
      "list": ["munros"],
      "region": "Glen Shiel to Loch Hourn and Loch Quoich",
      "heightM": 985.2,
      "heightFt": 3232,
      "lat": 57.126794,
      "lon": -5.182841,
      "gridRef": "NH074084",
      "source": "Database of British and Irish Hills v18.4"
    },
    {
      "id": "dobih-1068",
      "dobihId": 1068,
      "name": "Eididh nan Clach Geala",
      "list": ["munros"],
      "region": "Loch Broom to Strath Oykel",
      "heightM": 927,
      "heightFt": 3041,
      "lat": 57.813492,
      "lon": -4.934218,
      "gridRef": "NH257842",
      "source": "Database of British and Irish Hills v18.4"
    },
    {
      "id": "dobih-1050",
      "dobihId": 1050,
      "name": "Fionn Bheinn",
      "list": ["munros"],
      "region": "The Fannaichs",
      "heightM": 933,
      "heightFt": 3061,
      "lat": 57.611148,
      "lon": -5.102696,
      "gridRef": "NH147621",
      "source": "Database of British and Irish Hills v18.4"
    },
    {
      "id": "dobih-741",
      "dobihId": 741,
      "name": "Gairich",
      "list": ["munros"],
      "region": "Knoydart to Glen Kingie",
      "heightM": 918.8,
      "heightFt": 3014,
      "lat": 57.044888,
      "lon": -5.255828,
      "gridRef": "NN025995",
      "source": "Database of British and Irish Hills v18.4"
    },
    {
      "id": "dobih-732",
      "dobihId": 732,
      "name": "Garbh Chioch Mhor",
      "list": ["munros"],
      "region": "Knoydart to Glen Kingie",
      "heightM": 1012.9,
      "heightFt": 3323,
      "lat": 57.008556,
      "lon": -5.444322,
      "gridRef": "NM909961",
      "source": "Database of British and Irish Hills v18.4"
    },
    {
      "id": "dobih-350",
      "dobihId": 350,
      "name": "Geal Charn",
      "list": ["munros"],
      "region": "Loch Treig to Loch Ericht",
      "heightM": 1049.7,
      "heightFt": 3444,
      "lat": 56.897763,
      "lon": -4.457236,
      "gridRef": "NN504811",
      "source": "Database of British and Irish Hills v18.4"
    },
    {
      "id": "dobih-624",
      "dobihId": 624,
      "name": "Geal Charn",
      "list": ["munros"],
      "region": "Glen Albyn and the Monadh Liath",
      "heightM": 926.3,
      "heightFt": 3039,
      "lat": 57.057427,
      "lon": -4.373589,
      "gridRef": "NN561987",
      "source": "Database of British and Irish Hills v18.4"
    },
    {
      "id": "dobih-346",
      "dobihId": 346,
      "name": "Geal-charn",
      "list": ["munros"],
      "region": "Loch Treig to Loch Ericht",
      "heightM": 1131.4,
      "heightFt": 3712,
      "lat": 56.837827,
      "lon": -4.509693,
      "gridRef": "NN469746",
      "source": "Database of British and Irish Hills v18.4"
    },
    {
      "id": "dobih-392",
      "dobihId": 392,
      "name": "Geal-charn",
      "list": ["munros"],
      "region": "Loch Ericht to Glen Tromie & Glen Garry",
      "heightM": 917.1,
      "heightFt": 3009,
      "lat": 56.874433,
      "lon": -4.304519,
      "gridRef": "NN596782",
      "source": "Database of British and Irish Hills v18.4"
    },
    {
      "id": "dobih-245",
      "dobihId": 245,
      "name": "Glas Bheinn Mhor",
      "list": ["munros"],
      "region": "Glen Etive to Glen Lochy",
      "heightM": 997.7,
      "heightFt": 3273,
      "lat": 56.542434,
      "lon": -5.005252,
      "gridRef": "NN153429",
      "source": "Database of British and Irish Hills v18.4"
    },
    {
      "id": "dobih-461",
      "dobihId": 461,
      "name": "Glas Maol",
      "list": ["munros"],
      "region": "Braemar to Montrose",
      "heightM": 1067.7,
      "heightFt": 3503,
      "lat": 56.873068,
      "lon": -3.368237,
      "gridRef": "NO166765",
      "source": "Database of British and Irish Hills v18.4"
    },
    {
      "id": "dobih-424",
      "dobihId": 424,
      "name": "Glas Tulaichean",
      "list": ["munros"],
      "region": "Pitlochry to Braemar & Blairgowrie",
      "heightM": 1051,
      "heightFt": 3448,
      "lat": 56.865757,
      "lon": -3.55818,
      "gridRef": "NO051760",
      "source": "Database of British and Irish Hills v18.4"
    },
    {
      "id": "dobih-683",
      "dobihId": 683,
      "name": "Gleouraich",
      "list": ["munros"],
      "region": "Glen Shiel to Loch Hourn and Loch Quoich",
      "heightM": 1035.1,
      "heightFt": 3396,
      "lat": 57.097163,
      "lon": -5.238035,
      "gridRef": "NH039053",
      "source": "Database of British and Irish Hills v18.4"
    },
    {
      "id": "dobih-773",
      "dobihId": 773,
      "name": "Gulvain [Gaor Bheinn]",
      "list": ["munros"],
      "region": "Mallaig to Fort William",
      "heightM": 983.2,
      "heightFt": 3226,
      "lat": 56.936211,
      "lon": -5.284527,
      "gridRef": "NN002875",
      "source": "Database of British and Irish Hills v18.4"
    },
    {
      "id": "dobih-731",
      "dobihId": 731,
      "name": "Ladhar Bheinn",
      "list": ["munros"],
      "region": "Knoydart to Glen Kingie",
      "heightM": 1020,
      "heightFt": 3346,
      "lat": 57.075263,
      "lon": -5.591745,
      "gridRef": "NG824039",
      "source": "Database of British and Irish Hills v18.4"
    },
    {
      "id": "dobih-954",
      "dobihId": 954,
      "name": "Liathach - Mullach an Rathain",
      "list": ["munros"],
      "region": "Loch Torridon to Loch Maree",
      "heightM": 1023.9,
      "heightFt": 3359,
      "lat": 57.560883,
      "lon": -5.492516,
      "gridRef": "NG911576",
      "source": "Database of British and Irish Hills v18.4"
    },
    {
      "id": "dobih-953",
      "dobihId": 953,
      "name": "Liathach - Spidean a' Choire Leith",
      "list": ["munros"],
      "region": "Loch Torridon to Loch Maree",
      "heightM": 1054.8,
      "heightFt": 3461,
      "lat": 57.564197,
      "lon": -5.463626,
      "gridRef": "NG929579",
      "source": "Database of British and Irish Hills v18.4"
    },
    {
      "id": "dobih-457",
      "dobihId": 457,
      "name": "Lochnagar - Cac Carn Beag",
      "list": ["munros"],
      "region": "Braemar to Montrose",
      "heightM": 1155.7,
      "heightFt": 3792,
      "lat": 56.960272,
      "lon": -3.245261,
      "gridRef": "NO243861",
      "source": "Database of British and Irish Hills v18.4"
    },
    {
      "id": "dobih-739",
      "dobihId": 739,
      "name": "Luinne Bheinn",
      "list": ["munros"],
      "region": "Knoydart to Glen Kingie",
      "heightM": 938.6,
      "heightFt": 3079,
      "lat": 57.048325,
      "lon": -5.513607,
      "gridRef": "NG869007",
      "source": "Database of British and Irish Hills v18.4"
    },
    {
      "id": "dobih-896",
      "dobihId": 896,
      "name": "Lurg Mhor",
      "list": ["munros"],
      "region": "Kyle of Lochalsh to Garve",
      "heightM": 987.5,
      "heightFt": 3240,
      "lat": 57.413091,
      "lon": -5.223666,
      "gridRef": "NH064404",
      "source": "Database of British and Irish Hills v18.4"
    },
    {
      "id": "dobih-804",
      "dobihId": 804,
      "name": "Mam Sodhail",
      "list": ["munros"],
      "region": "Loch Duich to Cannich",
      "heightM": 1179.4,
      "heightFt": 3869,
      "lat": 57.279801,
      "lon": -5.120267,
      "gridRef": "NH120253",
      "source": "Database of British and Irish Hills v18.4"
    },
    {
      "id": "dobih-890",
      "dobihId": 890,
      "name": "Maoile Lunndaidh",
      "list": ["munros"],
      "region": "Kyle of Lochalsh to Garve",
      "heightM": 1004.9,
      "heightFt": 3297,
      "lat": 57.464477,
      "lon": -5.111002,
      "gridRef": "NH135458",
      "source": "Database of British and Irish Hills v18.4"
    },
    {
      "id": "dobih-982",
      "dobihId": 982,
      "name": "Maol Chean-dearg",
      "list": ["munros"],
      "region": "Applecross to Achnasheen",
      "heightM": 933,
      "heightFt": 3061,
      "lat": 57.491697,
      "lon": -5.465549,
      "gridRef": "NG924499",
      "source": "Database of British and Irish Hills v18.4"
    },
    {
      "id": "dobih-693",
      "dobihId": 693,
      "name": "Maol Chinn-dearg",
      "list": ["munros"],
      "region": "Glen Shiel to Loch Hourn and Loch Quoich",
      "heightM": 980.3,
      "heightFt": 3216,
      "lat": 57.12756,
      "lon": -5.252651,
      "gridRef": "NH032087",
      "source": "Database of British and Irish Hills v18.4"
    },
    {
      "id": "dobih-486",
      "dobihId": 486,
      "name": "Mayar",
      "list": ["munros"],
      "region": "Braemar to Montrose",
      "heightM": 928.6,
      "heightFt": 3047,
      "lat": 56.848936,
      "lon": -3.246316,
      "gridRef": "NO240737",
      "source": "Database of British and Irish Hills v18.4"
    },
    {
      "id": "dobih-233",
      "dobihId": 233,
      "name": "Meall a' Bhuiridh",
      "list": ["munros"],
      "region": "Glen Etive to Glen Lochy",
      "heightM": 1107.9,
      "heightFt": 3635,
      "lat": 56.612216,
      "lon": -4.852159,
      "gridRef": "NN250503",
      "source": "Database of British and Irish Hills v18.4"
    },
    {
      "id": "dobih-163",
      "dobihId": 163,
      "name": "Meall a' Choire Leith",
      "list": ["munros"],
      "region": "Glen Lyon to Glen Dochart & Loch Tay",
      "heightM": 925.6,
      "heightFt": 3037,
      "lat": 56.566312,
      "lon": -4.259617,
      "gridRef": "NN612438",
      "source": "Database of British and Irish Hills v18.4"
    },
    {
      "id": "dobih-1049",
      "dobihId": 1049,
      "name": "Meall a' Chrasgaidh",
      "list": ["munros"],
      "region": "The Fannaichs",
      "heightM": 934.4,
      "heightFt": 3066,
      "lat": 57.712866,
      "lon": -5.048742,
      "gridRef": "NH184733",
      "source": "Database of British and Irish Hills v18.4"
    },
    {
      "id": "dobih-123",
      "dobihId": 123,
      "name": "Meall Buidhe",
      "list": ["munros"],
      "region": "Loch Rannoch to Glen Lyon",
      "heightM": 932.1,
      "heightFt": 3058,
      "lat": 56.617231,
      "lon": -4.448608,
      "gridRef": "NN498499",
      "source": "Database of British and Irish Hills v18.4"
    },
    {
      "id": "dobih-737",
      "dobihId": 737,
      "name": "Meall Buidhe",
      "list": ["munros"],
      "region": "Knoydart to Glen Kingie",
      "heightM": 945.5,
      "heightFt": 3102,
      "lat": 57.031543,
      "lon": -5.546333,
      "gridRef": "NM848989",
      "source": "Database of British and Irish Hills v18.4"
    },
    {
      "id": "dobih-388",
      "dobihId": 388,
      "name": "Meall Chuaich",
      "list": ["munros"],
      "region": "Loch Ericht to Glen Tromie & Glen Garry",
      "heightM": 950.8,
      "heightFt": 3119,
      "lat": 56.96385,
      "lon": -4.112568,
      "gridRef": "NN716878",
      "source": "Database of British and Irish Hills v18.4"
    },
    {
      "id": "dobih-146",
      "dobihId": 146,
      "name": "Meall Corranaich",
      "list": ["munros"],
      "region": "Glen Lyon to Glen Dochart & Loch Tay",
      "heightM": 1067.2,
      "heightFt": 3501,
      "lat": 56.540955,
      "lon": -4.25347,
      "gridRef": "NN615410",
      "source": "Database of British and Irish Hills v18.4"
    },
    {
      "id": "dobih-118",
      "dobihId": 118,
      "name": "Meall Garbh",
      "list": ["munros"],
      "region": "Loch Rannoch to Glen Lyon",
      "heightM": 967.5,
      "heightFt": 3174,
      "lat": 56.637381,
      "lon": -4.207472,
      "gridRef": "NN647516",
      "source": "Database of British and Irish Hills v18.4"
    },
    {
      "id": "dobih-143",
      "dobihId": 143,
      "name": "Meall Garbh",
      "list": ["munros"],
      "region": "Glen Lyon to Glen Dochart & Loch Tay",
      "heightM": 1123.1,
      "heightFt": 3685,
      "lat": 56.566131,
      "lon": -4.207698,
      "gridRef": "NN644437",
      "source": "Database of British and Irish Hills v18.4"
    },
    {
      "id": "dobih-150",
      "dobihId": 150,
      "name": "Meall Ghaordaidh",
      "list": ["munros"],
      "region": "Glen Lyon to Glen Dochart & Loch Tay",
      "heightM": 1039.8,
      "heightFt": 3411,
      "lat": 56.525809,
      "lon": -4.416654,
      "gridRef": "NN514397",
      "source": "Database of British and Irish Hills v18.4"
    },
    {
      "id": "dobih-158",
      "dobihId": 158,
      "name": "Meall Glas",
      "list": ["munros"],
      "region": "Glen Lyon to Glen Dochart & Loch Tay",
      "heightM": 959.3,
      "heightFt": 3147,
      "lat": 56.455711,
      "lon": -4.546837,
      "gridRef": "NN431321",
      "source": "Database of British and Irish Hills v18.4"
    },
    {
      "id": "dobih-1047",
      "dobihId": 1047,
      "name": "Meall Gorm",
      "list": ["munros"],
      "region": "The Fannaichs",
      "heightM": 949.7,
      "heightFt": 3116,
      "lat": 57.680837,
      "lon": -4.983801,
      "gridRef": "NH221695",
      "source": "Database of British and Irish Hills v18.4"
    },
    {
      "id": "dobih-154",
      "dobihId": 154,
      "name": "Meall Greigh",
      "list": ["munros"],
      "region": "Glen Lyon to Glen Dochart & Loch Tay",
      "heightM": 1000.7,
      "heightFt": 3283,
      "lat": 56.567417,
      "lon": -4.159559,
      "gridRef": "NN674438",
      "source": "Database of British and Irish Hills v18.4"
    },
    {
      "id": "dobih-115",
      "dobihId": 115,
      "name": "Meall na Aighean",
      "list": ["munros"],
      "region": "Loch Rannoch to Glen Lyon",
      "heightM": 982.1,
      "heightFt": 3222,
      "lat": 56.620627,
      "lon": -4.128741,
      "gridRef": "NN694496",
      "source": "Database of British and Irish Hills v18.4"
    },
    {
      "id": "dobih-759",
      "dobihId": 759,
      "name": "Meall na Teanga",
      "list": ["munros"],
      "region": "Loch Arkaig to Glen Moriston",
      "heightM": 916.8,
      "heightFt": 3008,
      "lat": 56.98903,
      "lon": -4.93094,
      "gridRef": "NN220924",
      "source": "Database of British and Irish Hills v18.4"
    },
    {
      "id": "dobih-1064",
      "dobihId": 1064,
      "name": "Meall nan Ceapraichean",
      "list": ["munros"],
      "region": "Loch Broom to Strath Oykel",
      "heightM": 976.8,
      "heightFt": 3205,
      "lat": 57.798514,
      "lon": -4.934012,
      "gridRef": "NH257825",
      "source": "Database of British and Irish Hills v18.4"
    },
    {
      "id": "dobih-258",
      "dobihId": 258,
      "name": "Meall nan Eun",
      "list": ["munros"],
      "region": "Glen Etive to Glen Lochy",
      "heightM": 928.1,
      "heightFt": 3045,
      "lat": 56.561176,
      "lon": -4.942926,
      "gridRef": "NN192449",
      "source": "Database of British and Irish Hills v18.4"
    },
    {
      "id": "dobih-149",
      "dobihId": 149,
      "name": "Meall nan Tarmachan",
      "list": ["munros"],
      "region": "Glen Lyon to Glen Dochart & Loch Tay",
      "heightM": 1043.6,
      "heightFt": 3424,
      "lat": 56.521673,
      "lon": -4.301344,
      "gridRef": "NN585390",
      "source": "Database of British and Irish Hills v18.4"
    },
    {
      "id": "dobih-549",
      "dobihId": 549,
      "name": "Monadh Mor",
      "list": ["munros"],
      "region": "Cairngorms",
      "heightM": 1113.4,
      "heightFt": 3653,
      "lat": 57.0268,
      "lon": -3.75007,
      "gridRef": "NN938942",
      "source": "Database of British and Irish Hills v18.4"
    },
    {
      "id": "dobih-899",
      "dobihId": 899,
      "name": "Moruisg",
      "list": ["munros"],
      "region": "Kyle of Lochalsh to Garve",
      "heightM": 925.7,
      "heightFt": 3037,
      "lat": 57.499712,
      "lon": -5.17063,
      "gridRef": "NH101499",
      "source": "Database of British and Irish Hills v18.4"
    },
    {
      "id": "dobih-485",
      "dobihId": 485,
      "name": "Mount Keen",
      "list": ["munros"],
      "region": "Braemar to Montrose",
      "heightM": 939.4,
      "heightFt": 3082,
      "lat": 56.96976,
      "lon": -2.973622,
      "gridRef": "NO409869",
      "source": "Database of British and Irish Hills v18.4"
    },
    {
      "id": "dobih-571",
      "dobihId": 571,
      "name": "Mullach Clach a' Bhlair",
      "list": ["munros"],
      "region": "Cairngorms",
      "heightM": 1019,
      "heightFt": 3343,
      "lat": 57.011879,
      "lon": -3.841271,
      "gridRef": "NN882927",
      "source": "Database of British and Irish Hills v18.4"
    },
    {
      "id": "dobih-1007",
      "dobihId": 1007,
      "name": "Mullach Coire Mhic Fhearchair",
      "list": ["munros"],
      "region": "Loch Maree to Loch Broom",
      "heightM": 1015.2,
      "heightFt": 3331,
      "lat": 57.708995,
      "lon": -5.271357,
      "gridRef": "NH052735",
      "source": "Database of British and Irish Hills v18.4"
    },
    {
      "id": "dobih-864",
      "dobihId": 864,
      "name": "Mullach Fraoch-choire",
      "list": ["munros"],
      "region": "Glen Affric to Glen Moriston",
      "heightM": 1100.9,
      "heightFt": 3612,
      "lat": 57.205388,
      "lon": -5.155637,
      "gridRef": "NH094171",
      "source": "Database of British and Irish Hills v18.4"
    },
    {
      "id": "dobih-833",
      "dobihId": 833,
      "name": "Mullach na Dheiragain",
      "list": ["munros"],
      "region": "Loch Duich to Cannich",
      "heightM": 982,
      "heightFt": 3222,
      "lat": 57.283399,
      "lon": -5.186333,
      "gridRef": "NH080259",
      "source": "Database of British and Irish Hills v18.4"
    },
    {
      "id": "dobih-321",
      "dobihId": 321,
      "name": "Mullach nan Coirean",
      "list": ["munros"],
      "region": "Fort William to Loch Treig & Loch Leven",
      "heightM": 939.3,
      "heightFt": 3082,
      "lat": 56.749866,
      "lon": -5.072446,
      "gridRef": "NN122662",
      "source": "Database of British and Irish Hills v18.4"
    },
    {
      "id": "dobih-301",
      "dobihId": 301,
      "name": "Na Gruagaichean",
      "list": ["munros"],
      "region": "Fort William to Loch Treig & Loch Leven",
      "heightM": 1054.3,
      "heightFt": 3459,
      "lat": 56.743699,
      "lon": -4.939851,
      "gridRef": "NN203652",
      "source": "Database of British and Irish Hills v18.4"
    },
    {
      "id": "dobih-1023",
      "dobihId": 1023,
      "name": "Ruadh Stac Mor",
      "list": ["munros"],
      "region": "Loch Maree to Loch Broom",
      "heightM": 918.7,
      "heightFt": 3014,
      "lat": 57.726781,
      "lon": -5.329288,
      "gridRef": "NH018756",
      "source": "Database of British and Irish Hills v18.4"
    },
    {
      "id": "dobih-867",
      "dobihId": 867,
      "name": "Sail Chaorainn",
      "list": ["munros"],
      "region": "Glen Affric to Glen Moriston",
      "heightM": 999.2,
      "heightFt": 3278,
      "lat": 57.191631,
      "lon": -5.091183,
      "gridRef": "NH133154",
      "source": "Database of British and Irish Hills v18.4"
    },
    {
      "id": "dobih-839",
      "dobihId": 839,
      "name": "Saileag",
      "list": ["munros"],
      "region": "Loch Duich to Cannich",
      "heightM": 956,
      "heightFt": 3136,
      "lat": 57.181264,
      "lon": -5.281331,
      "gridRef": "NH017148",
      "source": "Database of British and Irish Hills v18.4"
    },
    {
      "id": "dobih-103",
      "dobihId": 103,
      "name": "Schiehallion",
      "list": ["munros"],
      "region": "Loch Rannoch to Glen Lyon",
      "heightM": 1083.3,
      "heightFt": 3554,
      "lat": 56.666942,
      "lon": -4.10023,
      "gridRef": "NN713547",
      "source": "Database of British and Irish Hills v18.4"
    },
    {
      "id": "dobih-1069",
      "dobihId": 1069,
      "name": "Seana Bhraigh",
      "list": ["munros"],
      "region": "Loch Broom to Strath Oykel",
      "heightM": 926,
      "heightFt": 3038,
      "lat": 57.84733,
      "lon": -4.89662,
      "gridRef": "NH281878",
      "source": "Database of British and Irish Hills v18.4"
    },
    {
      "id": "dobih-384",
      "dobihId": 384,
      "name": "Sgairneach Mhor",
      "list": ["munros"],
      "region": "Loch Ericht to Glen Tromie & Glen Garry",
      "heightM": 991.4,
      "heightFt": 3253,
      "lat": 56.828406,
      "lon": -4.298084,
      "gridRef": "NN598731",
      "source": "Database of British and Irish Hills v18.4"
    },
    {
      "id": "dobih-165",
      "dobihId": 165,
      "name": "Sgiath Chuil",
      "list": ["munros"],
      "region": "Glen Lyon to Glen Dochart & Loch Tay",
      "heightM": 920.1,
      "heightFt": 3019,
      "lat": 56.453157,
      "lon": -4.495638,
      "gridRef": "NN462317",
      "source": "Database of British and Irish Hills v18.4"
    },
    {
      "id": "dobih-523",
      "dobihId": 523,
      "name": "Sgor an Lochain Uaine",
      "list": ["munros"],
      "region": "Cairngorms",
      "heightM": 1258,
      "heightFt": 4127,
      "lat": 57.058376,
      "lon": -3.725897,
      "gridRef": "NN954976",
      "source": "Database of British and Irish Hills v18.4"
    },
    {
      "id": "dobih-361",
      "dobihId": 361,
      "name": "Sgor Gaibhre",
      "list": ["munros"],
      "region": "Loch Treig to Loch Ericht",
      "heightM": 954.7,
      "heightFt": 3132,
      "lat": 56.772544,
      "lon": -4.546498,
      "gridRef": "NN444674",
      "source": "Database of British and Irish Hills v18.4"
    },
    {
      "id": "dobih-548",
      "dobihId": 548,
      "name": "Sgor Gaoith",
      "list": ["munros"],
      "region": "Cairngorms",
      "heightM": 1116,
      "heightFt": 3661,
      "lat": 57.068552,
      "lon": -3.810856,
      "gridRef": "NN903989",
      "source": "Database of British and Irish Hills v18.4"
    },
    {
      "id": "dobih-981",
      "dobihId": 981,
      "name": "Sgorr Ruadh",
      "list": ["munros"],
      "region": "Applecross to Achnasheen",
      "heightM": 960.7,
      "heightFt": 3152,
      "lat": 57.498622,
      "lon": -5.407747,
      "gridRef": "NG959505",
      "source": "Database of British and Irish Hills v18.4"
    },
    {
      "id": "dobih-821",
      "dobihId": 821,
      "name": "Sgurr a' Bhealaich Dheirg",
      "list": ["munros"],
      "region": "Loch Duich to Cannich",
      "heightM": 1036,
      "heightFt": 3399,
      "lat": 57.177825,
      "lon": -5.252177,
      "gridRef": "NH035143",
      "source": "Database of British and Irish Hills v18.4"
    },
    {
      "id": "dobih-885",
      "dobihId": 885,
      "name": "Sgurr a' Chaorachain",
      "list": ["munros"],
      "region": "Kyle of Lochalsh to Garve",
      "heightM": 1053,
      "heightFt": 3455,
      "lat": 57.452492,
      "lon": -5.189284,
      "gridRef": "NH087447",
      "source": "Database of British and Irish Hills v18.4"
    },
    {
      "id": "dobih-884",
      "dobihId": 884,
      "name": "Sgurr a' Choire Ghlais",
      "list": ["munros"],
      "region": "Kyle of Lochalsh to Garve",
      "heightM": 1083.7,
      "heightFt": 3555,
      "lat": 57.444289,
      "lon": -4.90374,
      "gridRef": "NH258430",
      "source": "Database of British and Irish Hills v18.4"
    },
    {
      "id": "dobih-1243",
      "dobihId": 1243,
      "name": "Sgurr a' Ghreadaidh",
      "list": ["munros"],
      "region": "Minginish and the Cuillin Hills",
      "heightM": 972.1,
      "heightFt": 3189,
      "lat": 57.227313,
      "lon": -6.234425,
      "gridRef": "NG445231",
      "source": "Database of British and Irish Hills v18.4"
    },
    {
      "id": "dobih-1259",
      "dobihId": 1259,
      "name": "Sgurr a' Mhadaidh",
      "list": ["munros"],
      "region": "Minginish and the Cuillin Hills",
      "heightM": 918,
      "heightFt": 3012,
      "lat": 57.230868,
      "lon": -6.231947,
      "gridRef": "NG446235",
      "source": "Database of British and Irish Hills v18.4"
    },
    {
      "id": "dobih-295",
      "dobihId": 295,
      "name": "Sgurr a' Mhaim",
      "list": ["munros"],
      "region": "Fort William to Loch Treig & Loch Leven",
      "heightM": 1099,
      "heightFt": 3606,
      "lat": 56.75592,
      "lon": -5.00369,
      "gridRef": "NN164667",
      "source": "Database of British and Irish Hills v18.4"
    },
    {
      "id": "dobih-684",
      "dobihId": 684,
      "name": "Sgurr a' Mhaoraich",
      "list": ["munros"],
      "region": "Glen Shiel to Loch Hourn and Loch Quoich",
      "heightM": 1026.6,
      "heightFt": 3368,
      "lat": 57.105673,
      "lon": -5.330394,
      "gridRef": "NG983065",
      "source": "Database of British and Irish Hills v18.4"
    },
    {
      "id": "dobih-1239",
      "dobihId": 1239,
      "name": "Sgurr Alasdair",
      "list": ["munros"],
      "region": "Minginish and the Cuillin Hills",
      "heightM": 992,
      "heightFt": 3255,
      "lat": 57.206589,
      "lon": -6.224143,
      "gridRef": "NG450207",
      "source": "Database of British and Irish Hills v18.4"
    },
    {
      "id": "dobih-687",
      "dobihId": 687,
      "name": "Sgurr an Doire Leathain",
      "list": ["munros"],
      "region": "Glen Shiel to Loch Hourn and Loch Quoich",
      "heightM": 1010,
      "heightFt": 3314,
      "lat": 57.13687,
      "lon": -5.281531,
      "gridRef": "NH015098",
      "source": "Database of British and Irish Hills v18.4"
    },
    {
      "id": "dobih-690",
      "dobihId": 690,
      "name": "Sgurr an Lochain",
      "list": ["munros"],
      "region": "Glen Shiel to Loch Hourn and Loch Quoich",
      "heightM": 1004,
      "heightFt": 3294,
      "lat": 57.141288,
      "lon": -5.297466,
      "gridRef": "NH005104",
      "source": "Database of British and Irish Hills v18.4"
    },
    {
      "id": "dobih-1009",
      "dobihId": 1009,
      "name": "Sgurr Ban",
      "list": ["munros"],
      "region": "Loch Maree to Loch Broom",
      "heightM": 989,
      "heightFt": 3245,
      "lat": 57.718538,
      "lon": -5.265903,
      "gridRef": "NH055745",
      "source": "Database of British and Irish Hills v18.4"
    },
    {
      "id": "dobih-1042",
      "dobihId": 1042,
      "name": "Sgurr Breac",
      "list": ["munros"],
      "region": "The Fannaichs",
      "heightM": 999.6,
      "heightFt": 3280,
      "lat": 57.691943,
      "lon": -5.09131,
      "gridRef": "NH158711",
      "source": "Database of British and Irish Hills v18.4"
    },
    {
      "id": "dobih-892",
      "dobihId": 892,
      "name": "Sgurr Choinnich",
      "list": ["munros"],
      "region": "Kyle of Lochalsh to Garve",
      "heightM": 999.3,
      "heightFt": 3279,
      "lat": 57.451026,
      "lon": -5.207916,
      "gridRef": "NH076446",
      "source": "Database of British and Irish Hills v18.4"
    },
    {
      "id": "dobih-296",
      "dobihId": 296,
      "name": "Sgurr Choinnich Mor",
      "list": ["munros"],
      "region": "Fort William to Loch Treig & Loch Leven",
      "heightM": 1094,
      "heightFt": 3589,
      "lat": 56.800439,
      "lon": -4.90396,
      "gridRef": "NN227714",
      "source": "Database of British and Irish Hills v18.4"
    },
    {
      "id": "dobih-1240",
      "dobihId": 1240,
      "name": "Sgurr Dearg - Inaccessible Pinnacle",
      "list": ["munros"],
      "region": "Minginish and the Cuillin Hills",
      "heightM": 985.8,
      "heightFt": 3234,
      "lat": 57.213261,
      "lon": -6.234818,
      "gridRef": "NG444215",
      "source": "Database of British and Irish Hills v18.4"
    },
    {
      "id": "dobih-1250",
      "dobihId": 1250,
      "name": "Sgurr Dubh Mor",
      "list": ["munros"],
      "region": "Minginish and the Cuillin Hills",
      "heightM": 944.1,
      "heightFt": 3097,
      "lat": 57.204869,
      "lon": -6.211385,
      "gridRef": "NG457205",
      "source": "Database of British and Irish Hills v18.4"
    },
    {
      "id": "dobih-305",
      "dobihId": 305,
      "name": "Sgurr Eilde Mor",
      "list": ["munros"],
      "region": "Fort William to Loch Treig & Loch Leven",
      "heightM": 1010,
      "heightFt": 3314,
      "lat": 56.750006,
      "lon": -4.895435,
      "gridRef": "NN230657",
      "source": "Database of British and Irish Hills v18.4"
    },
    {
      "id": "dobih-886",
      "dobihId": 886,
      "name": "Sgurr Fhuar-thuill",
      "list": ["munros"],
      "region": "Kyle of Lochalsh to Garve",
      "heightM": 1049.2,
      "heightFt": 3442,
      "lat": 57.44968,
      "lon": -4.94178,
      "gridRef": "NH235437",
      "source": "Database of British and Irish Hills v18.4"
    },
    {
      "id": "dobih-815",
      "dobihId": 815,
      "name": "Sgurr Fhuaran",
      "list": ["munros"],
      "region": "Loch Duich to Cannich",
      "heightM": 1068.8,
      "heightFt": 3507,
      "lat": 57.19615,
      "lon": -5.34765,
      "gridRef": "NG978166",
      "source": "Database of British and Irish Hills v18.4"
    },
    {
      "id": "dobih-1248",
      "dobihId": 1248,
      "name": "Sgurr Mhic Choinnich",
      "list": ["munros"],
      "region": "Minginish and the Cuillin Hills",
      "heightM": 948.1,
      "heightFt": 3111,
      "lat": 57.208956,
      "lon": -6.224099,
      "gridRef": "NG450210",
      "source": "Database of British and Irish Hills v18.4"
    },
    {
      "id": "dobih-733",
      "dobihId": 733,
      "name": "Sgurr Mor",
      "list": ["munros"],
      "region": "Knoydart to Glen Kingie",
      "heightM": 1003,
      "heightFt": 3291,
      "lat": 57.028446,
      "lon": -5.354206,
      "gridRef": "NM965980",
      "source": "Database of British and Irish Hills v18.4"
    },
    {
      "id": "dobih-1040",
      "dobihId": 1040,
      "name": "Sgurr Mor",
      "list": ["munros"],
      "region": "The Fannaichs",
      "heightM": 1108.9,
      "heightFt": 3638,
      "lat": 57.700133,
      "lon": -5.016765,
      "gridRef": "NH203718",
      "source": "Database of British and Irish Hills v18.4"
    },
    {
      "id": "dobih-1245",
      "dobihId": 1245,
      "name": "Sgurr na Banachdich [Sgurr na Banachdaich]",
      "list": ["munros"],
      "region": "Minginish and the Cuillin Hills",
      "heightM": 965,
      "heightFt": 3166,
      "lat": 57.220972,
      "lon": -6.241638,
      "gridRef": "NG440224",
      "source": "Database of British and Irish Hills v18.4"
    },
    {
      "id": "dobih-827",
      "dobihId": 827,
      "name": "Sgurr na Carnach",
      "list": ["munros"],
      "region": "Loch Duich to Cannich",
      "heightM": 1002,
      "heightFt": 3287,
      "lat": 57.189034,
      "lon": -5.349224,
      "gridRef": "NG977158",
      "source": "Database of British and Irish Hills v18.4"
    },
    {
      "id": "dobih-730",
      "dobihId": 730,
      "name": "Sgurr na Ciche",
      "list": ["munros"],
      "region": "Knoydart to Glen Kingie",
      "heightM": 1040.2,
      "heightFt": 3413,
      "lat": 57.01346,
      "lon": -5.456871,
      "gridRef": "NM902966",
      "source": "Database of British and Irish Hills v18.4"
    },
    {
      "id": "dobih-825",
      "dobihId": 825,
      "name": "Sgurr na Ciste Duibhe",
      "list": ["munros"],
      "region": "Loch Duich to Cannich",
      "heightM": 1027,
      "heightFt": 3369,
      "lat": 57.180924,
      "lon": -5.337134,
      "gridRef": "NG984149",
      "source": "Database of British and Irish Hills v18.4"
    },
    {
      "id": "dobih-199",
      "dobihId": 199,
      "name": "Sgurr na h-Ulaidh [Sgor na h-Ulaidh]",
      "list": ["munros"],
      "region": "Loch Linnhe to Loch Etive",
      "heightM": 994,
      "heightFt": 3261,
      "lat": 56.619804,
      "lon": -5.080061,
      "gridRef": "NN111517",
      "source": "Database of British and Irish Hills v18.4"
    },
    {
      "id": "dobih-926",
      "dobihId": 926,
      "name": "Sgurr na Lapaich",
      "list": ["munros"],
      "region": "Killilan to Inverness",
      "heightM": 1151.9,
      "heightFt": 3779,
      "lat": 57.369311,
      "lon": -5.059726,
      "gridRef": "NH161351",
      "source": "Database of British and Irish Hills v18.4"
    },
    {
      "id": "dobih-894",
      "dobihId": 894,
      "name": "Sgurr na Ruaidhe",
      "list": ["munros"],
      "region": "Kyle of Lochalsh to Garve",
      "heightM": 993,
      "heightFt": 3258,
      "lat": 57.441497,
      "lon": -4.852465,
      "gridRef": "NH289426",
      "source": "Database of British and Irish Hills v18.4"
    },
    {
      "id": "dobih-701",
      "dobihId": 701,
      "name": "Sgurr na Sgine",
      "list": ["munros"],
      "region": "Glen Shiel to Loch Hourn and Loch Quoich",
      "heightM": 946,
      "heightFt": 3104,
      "lat": 57.147088,
      "lon": -5.396666,
      "gridRef": "NG946113",
      "source": "Database of British and Irish Hills v18.4"
    },
    {
      "id": "dobih-805",
      "dobihId": 805,
      "name": "Sgurr nan Ceathramhnan [Sgurr nan Ceathreamhnan]",
      "list": ["munros"],
      "region": "Loch Duich to Cannich",
      "heightM": 1149.7,
      "heightFt": 3772,
      "lat": 57.254911,
      "lon": -5.222732,
      "gridRef": "NH057228",
      "source": "Database of British and Irish Hills v18.4"
    },
    {
      "id": "dobih-1041",
      "dobihId": 1041,
      "name": "Sgurr nan Clach Geala",
      "list": ["munros"],
      "region": "The Fannaichs",
      "heightM": 1093.4,
      "heightFt": 3587,
      "lat": 57.696287,
      "lon": -5.048238,
      "gridRef": "NH184714",
      "source": "Database of British and Irish Hills v18.4"
    },
    {
      "id": "dobih-736",
      "dobihId": 736,
      "name": "Sgurr nan Coireachan",
      "list": ["munros"],
      "region": "Knoydart to Glen Kingie",
      "heightM": 953.8,
      "heightFt": 3129,
      "lat": 57.007158,
      "lon": -5.40544,
      "gridRef": "NM933958",
      "source": "Database of British and Irish Hills v18.4"
    },
    {
      "id": "dobih-776",
      "dobihId": 776,
      "name": "Sgurr nan Coireachan",
      "list": ["munros"],
      "region": "Mallaig to Fort William",
      "heightM": 956.3,
      "heightFt": 3137,
      "lat": 56.935728,
      "lon": -5.448551,
      "gridRef": "NM902880",
      "source": "Database of British and Irish Hills v18.4"
    },
    {
      "id": "dobih-863",
      "dobihId": 863,
      "name": "Sgurr nan Conbhairean",
      "list": ["munros"],
      "region": "Glen Affric to Glen Moriston",
      "heightM": 1109,
      "heightFt": 3638,
      "lat": 57.177622,
      "lon": -5.095407,
      "gridRef": "NH129138",
      "source": "Database of British and Irish Hills v18.4"
    },
    {
      "id": "dobih-1051",
      "dobihId": 1051,
      "name": "Sgurr nan Each",
      "list": ["munros"],
      "region": "The Fannaichs",
      "heightM": 924,
      "heightFt": 3031,
      "lat": 57.681017,
      "lon": -5.046334,
      "gridRef": "NH184697",
      "source": "Database of British and Irish Hills v18.4"
    },
    {
      "id": "dobih-1258",
      "dobihId": 1258,
      "name": "Sgurr nan Eag",
      "list": ["munros"],
      "region": "Minginish and the Cuillin Hills",
      "heightM": 926.3,
      "heightFt": 3039,
      "lat": 57.19581,
      "lon": -6.211264,
      "gridRef": "NG457195",
      "source": "Database of British and Irish Hills v18.4"
    },
    {
      "id": "dobih-1246",
      "dobihId": 1246,
      "name": "Sgurr nan Gillean",
      "list": ["munros"],
      "region": "Minginish and the Cuillin Hills",
      "heightM": 966.1,
      "heightFt": 3170,
      "lat": 57.248215,
      "lon": -6.193159,
      "gridRef": "NG471252",
      "source": "Database of British and Irish Hills v18.4"
    },
    {
      "id": "dobih-774",
      "dobihId": 774,
      "name": "Sgurr Thuilm",
      "list": ["munros"],
      "region": "Mallaig to Fort William",
      "heightM": 963,
      "heightFt": 3159,
      "lat": 56.937056,
      "lon": -5.389207,
      "gridRef": "NM939879",
      "source": "Database of British and Irish Hills v18.4"
    },
    {
      "id": "dobih-1010",
      "dobihId": 1010,
      "name": "Slioch",
      "list": ["munros"],
      "region": "Loch Maree to Loch Broom",
      "heightM": 981.2,
      "heightFt": 3219,
      "lat": 57.667139,
      "lon": -5.347077,
      "gridRef": "NH004690",
      "source": "Database of British and Irish Hills v18.4"
    },
    {
      "id": "dobih-691",
      "dobihId": 691,
      "name": "Spidean Mialach",
      "list": ["munros"],
      "region": "Glen Shiel to Loch Hourn and Loch Quoich",
      "heightM": 995.9,
      "heightFt": 3267,
      "lat": 57.088964,
      "lon": -5.193614,
      "gridRef": "NH065043",
      "source": "Database of British and Irish Hills v18.4"
    },
    {
      "id": "dobih-758",
      "dobihId": 758,
      "name": "Sron a' Choire Ghairbh",
      "list": ["munros"],
      "region": "Loch Arkaig to Glen Moriston",
      "heightM": 936.2,
      "heightFt": 3072,
      "lat": 57.00784,
      "lon": -4.928747,
      "gridRef": "NN222945",
      "source": "Database of British and Irish Hills v18.4"
    },
    {
      "id": "dobih-292",
      "dobihId": 292,
      "name": "Stob a' Choire Mheadhoin",
      "list": ["munros"],
      "region": "Fort William to Loch Treig & Loch Leven",
      "heightM": 1105,
      "heightFt": 3625,
      "lat": 56.823684,
      "lon": -4.760199,
      "gridRef": "NN316736",
      "source": "Database of British and Irish Hills v18.4"
    },
    {
      "id": "dobih-255",
      "dobihId": 255,
      "name": "Stob a' Choire Odhair",
      "list": ["munros"],
      "region": "Glen Etive to Glen Lochy",
      "heightM": 945,
      "heightFt": 3100,
      "lat": 56.573308,
      "lon": -4.838302,
      "gridRef": "NN257459",
      "source": "Database of British and Irish Hills v18.4"
    },
    {
      "id": "dobih-309",
      "dobihId": 309,
      "name": "Stob Ban",
      "list": ["munros"],
      "region": "Fort William to Loch Treig & Loch Leven",
      "heightM": 999.7,
      "heightFt": 3280,
      "lat": 56.743706,
      "lon": -5.030328,
      "gridRef": "NN147654",
      "source": "Database of British and Irish Hills v18.4"
    },
    {
      "id": "dobih-314",
      "dobihId": 314,
      "name": "Stob Ban",
      "list": ["munros"],
      "region": "Fort William to Loch Treig & Loch Leven",
      "heightM": 977,
      "heightFt": 3205,
      "lat": 56.810656,
      "lon": -4.840877,
      "gridRef": "NN266723",
      "source": "Database of British and Irish Hills v18.4"
    },
    {
      "id": "dobih-27",
      "dobihId": 27,
      "name": "Stob Binnein",
      "list": ["munros"],
      "region": "Loch Lomond to Strathyre",
      "heightM": 1164.8,
      "heightFt": 3822,
      "lat": 56.370708,
      "lon": -4.535768,
      "gridRef": "NN434227",
      "source": "Database of British and Irish Hills v18.4"
    },
    {
      "id": "dobih-285",
      "dobihId": 285,
      "name": "Stob Choire Claurigh",
      "list": ["munros"],
      "region": "Fort William to Loch Treig & Loch Leven",
      "heightM": 1178.3,
      "heightFt": 3866,
      "lat": 56.823795,
      "lon": -4.849625,
      "gridRef": "NN261738",
      "source": "Database of British and Irish Hills v18.4"
    },
    {
      "id": "dobih-241",
      "dobihId": 241,
      "name": "Stob Coir' an Albannaich",
      "list": ["munros"],
      "region": "Glen Etive to Glen Lochy",
      "heightM": 1044.9,
      "heightFt": 3428,
      "lat": 56.554903,
      "lon": -4.979809,
      "gridRef": "NN169443",
      "source": "Database of British and Irish Hills v18.4"
    },
    {
      "id": "dobih-313",
      "dobihId": 313,
      "name": "Stob Coire a' Chairn",
      "list": ["munros"],
      "region": "Fort William to Loch Treig & Loch Leven",
      "heightM": 981.3,
      "heightFt": 3219,
      "lat": 56.750756,
      "lon": -4.968985,
      "gridRef": "NN185660",
      "source": "Database of British and Irish Hills v18.4"
    },
    {
      "id": "dobih-289",
      "dobihId": 289,
      "name": "Stob Coire an Laoigh",
      "list": ["munros"],
      "region": "Fort William to Loch Treig & Loch Leven",
      "heightM": 1116.7,
      "heightFt": 3664,
      "lat": 56.810877,
      "lon": -4.884907,
      "gridRef": "NN239725",
      "source": "Database of British and Irish Hills v18.4"
    },
    {
      "id": "dobih-290",
      "dobihId": 290,
      "name": "Stob Coire Easain",
      "list": ["munros"],
      "region": "Fort William to Loch Treig & Loch Leven",
      "heightM": 1115,
      "heightFt": 3658,
      "lat": 56.818199,
      "lon": -4.77371,
      "gridRef": "NN308730",
      "source": "Database of British and Irish Hills v18.4"
    },
    {
      "id": "dobih-194",
      "dobihId": 194,
      "name": "Stob Coire Sgreamhach",
      "list": ["munros"],
      "region": "Loch Linnhe to Loch Etive",
      "heightM": 1072,
      "heightFt": 3517,
      "lat": 56.638314,
      "lon": -5.010284,
      "gridRef": "NN154536",
      "source": "Database of British and Irish Hills v18.4"
    },
    {
      "id": "dobih-356",
      "dobihId": 356,
      "name": "Stob Coire Sgriodain",
      "list": ["munros"],
      "region": "Loch Treig to Loch Ericht",
      "heightM": 979,
      "heightFt": 3212,
      "lat": 56.831744,
      "lon": -4.694934,
      "gridRef": "NN356743",
      "source": "Database of British and Irish Hills v18.4"
    },
    {
      "id": "dobih-244",
      "dobihId": 244,
      "name": "Stob Daimh [Stob Diamh]",
      "list": ["munros"],
      "region": "Glen Etive to Glen Lochy",
      "heightM": 999.2,
      "heightFt": 3278,
      "lat": 56.431336,
      "lon": -5.091319,
      "gridRef": "NN094308",
      "source": "Database of British and Irish Hills v18.4"
    },
    {
      "id": "dobih-237",
      "dobihId": 237,
      "name": "Stob Ghabhar",
      "list": ["munros"],
      "region": "Glen Etive to Glen Lochy",
      "heightM": 1089.2,
      "heightFt": 3573,
      "lat": 56.568103,
      "lon": -4.882099,
      "gridRef": "NN230455",
      "source": "Database of British and Irish Hills v18.4"
    },
    {
      "id": "dobih-662",
      "dobihId": 662,
      "name": "Stob Poite Coire Ardair",
      "list": ["munros"],
      "region": "Loch Lochy to Loch Laggan",
      "heightM": 1052.5,
      "heightFt": 3453,
      "lat": 56.964037,
      "lon": -4.585762,
      "gridRef": "NN428888",
      "source": "Database of British and Irish Hills v18.4"
    },
    {
      "id": "dobih-18",
      "dobihId": 18,
      "name": "Stuc a' Chroin",
      "list": ["munros"],
      "region": "Strathyre to Strathallan",
      "heightM": 973,
      "heightFt": 3192,
      "lat": 56.329315,
      "lon": -4.237533,
      "gridRef": "NN617174",
      "source": "Database of British and Irish Hills v18.4"
    },
    {
      "id": "dobih-120",
      "dobihId": 120,
      "name": "Stuc an Lochain [Stuchd an Lochain]",
      "list": ["munros"],
      "region": "Loch Rannoch to Glen Lyon",
      "heightM": 959.5,
      "heightFt": 3148,
      "lat": 56.570907,
      "lon": -4.470602,
      "gridRef": "NN483448",
      "source": "Database of British and Irish Hills v18.4"
    },
    {
      "id": "dobih-435",
      "dobihId": 435,
      "name": "The Cairnwell",
      "list": ["munros"],
      "region": "Pitlochry to Braemar & Blairgowrie",
      "heightM": 933,
      "heightFt": 3061,
      "lat": 56.87952,
      "lon": -3.421215,
      "gridRef": "NO134773",
      "source": "Database of British and Irish Hills v18.4"
    },
    {
      "id": "dobih-575",
      "dobihId": 575,
      "name": "The Devil's Point",
      "list": ["munros"],
      "region": "Cairngorms",
      "heightM": 1006.9,
      "heightFt": 3303,
      "lat": 57.03571,
      "lon": -3.688803,
      "gridRef": "NN976951",
      "source": "Database of British and Irish Hills v18.4"
    },
    {
      "id": "dobih-688",
      "dobihId": 688,
      "name": "The Saddle",
      "list": ["munros"],
      "region": "Glen Shiel to Loch Hourn and Loch Quoich",
      "heightM": 1011.5,
      "heightFt": 3319,
      "lat": 57.162395,
      "lon": -5.414721,
      "gridRef": "NG936131",
      "source": "Database of British and Irish Hills v18.4"
    },
    {
      "id": "dobih-818",
      "dobihId": 818,
      "name": "Toll Creagach",
      "list": ["munros"],
      "region": "Loch Duich to Cannich",
      "heightM": 1053.7,
      "heightFt": 3457,
      "lat": 57.309228,
      "lon": -4.999937,
      "gridRef": "NH194282",
      "source": "Database of British and Irish Hills v18.4"
    },
    {
      "id": "dobih-479",
      "dobihId": 479,
      "name": "Tolmount",
      "list": ["munros"],
      "region": "Braemar to Montrose",
      "heightM": 957.8,
      "heightFt": 3142,
      "lat": 56.904724,
      "lon": -3.297946,
      "gridRef": "NO210800",
      "source": "Database of British and Irish Hills v18.4"
    },
    {
      "id": "dobih-810",
      "dobihId": 810,
      "name": "Tom a' Choinnich [Tom a' Choinich]",
      "list": ["munros"],
      "region": "Loch Duich to Cannich",
      "heightM": 1112.7,
      "heightFt": 3651,
      "lat": 57.299545,
      "lon": -5.048961,
      "gridRef": "NH164273",
      "source": "Database of British and Irish Hills v18.4"
    },
    {
      "id": "dobih-480",
      "dobihId": 480,
      "name": "Tom Buidhe",
      "list": ["munros"],
      "region": "Braemar to Montrose",
      "heightM": 957.8,
      "heightFt": 3142,
      "lat": 56.893624,
      "lon": -3.292357,
      "gridRef": "NO213787",
      "source": "Database of British and Irish Hills v18.4"
    }
  ]
}
